{"type":"FeatureCollection", "features": [
{"type":"Feature","geometry":{"type":"Point","coordinates":[-98.84693585760203,22.06851800004655]},"properties":{"Name":"SE PEï¿½OLES","Fase":"En operacion","Voltaje_KV":115}},
{"type":"Feature","geometry":{"type":"Point","coordinates":[-98.99785884307661,21.98135989468606]},"properties":{"Name":"SE VALLES","Fase":"En operacion","Voltaje_KV":115}},
{"type":"Feature","geometry":{"type":"Point","coordinates":[-98.84641082988182,22.044164956359438]},"properties":{"Name":"SE EL COCO","Fase":"En operacion","Voltaje_KV":115}},
{"type":"Feature","geometry":{"type":"Point","coordinates":[-98.84581450745937,22.069040465474856]},"properties":{"Name":"SE CEMEX","Fase":"En operacion","Voltaje_KV":400}},
{"type":"Feature","geometry":{"type":"Point","coordinates":[-98.84470268056879,22.04679605865956]},"properties":{"Name":"SE ANAHUAC POT.","Fase":"En operacion","Voltaje_KV":400}},
{"type":"Feature","geometry":{"type":"Point","coordinates":[-99.00112287090121,22.015414053416297]},"properties":{"Name":"SE VALLE ALTO","Fase":"En operacion","Voltaje_KV":115}},
{"type":"Feature","geometry":{"type":"Point","coordinates":[-98.40624011864172,22.203278995889367]},"properties":{"Name":"SE EBANO","Fase":"En operacion","Voltaje_KV":115}},
{"type":"Feature","geometry":{"type":"Point","coordinates":[-98.7818625644267,21.262731230273985]},"properties":{"Name":"SE TAMAZUNCHALE","Fase":"En operacion","Voltaje_KV":115}},
{"type":"Feature","geometry":{"type":"Point","coordinates":[-98.19229744167066,22.044762891022565]},"properties":{"Name":"SE PANUCO","Fase":"En operacion","Voltaje_KV":115}},
{"type":"Feature","geometry":{"type":"Point","coordinates":[-97.87525862278304,22.237199628057017]},"properties":{"Name":"SE CHAIREL","Fase":"En operacion","Voltaje_KV":115}},
{"type":"Feature","geometry":{"type":"Point","coordinates":[-97.82188936598749,22.259048273726574]},"properties":{"Name":"SE PEMEX REFINERIA MADERO","Fase":"En operacion","Voltaje_KV":115}},
{"type":"Feature","geometry":{"type":"Point","coordinates":[-97.8178945027867,22.263558267051554]},"properties":{"Name":"SE REFINERIA MADERO","Fase":"En operacion","Voltaje_KV":115}},
{"type":"Feature","geometry":{"type":"Point","coordinates":[-97.906689064759,22.400566329516153]},"properties":{"Name":"SE LAGUNA DEL CONEJO","Fase":"En operacion","Voltaje_KV":115}},
{"type":"Feature","geometry":{"type":"Point","coordinates":[-97.89599460969377,22.385405078153326]},"properties":{"Name":"SE ENERTEK","Fase":"En operacion","Voltaje_KV":115}},
{"type":"Feature","geometry":{"type":"Point","coordinates":[-97.90030946836372,22.378978013367576]},"properties":{"Name":"SE PETROCEL INDELPRO","Fase":"En operacion","Voltaje_KV":115}},
{"type":"Feature","geometry":{"type":"Point","coordinates":[-97.49180393189592,20.52811500681924]},"properties":{"Name":"SE POZA RICA I","Fase":"En operacion","Voltaje_KV":230}},
{"type":"Feature","geometry":{"type":"Point","coordinates":[-97.45797901462889,20.547411783438758]},"properties":{"Name":"SE PALMAS","Fase":"En operacion","Voltaje_KV":115}},
{"type":"Feature","geometry":{"type":"Point","coordinates":[-97.4277130958333,20.535241417625087]},"properties":{"Name":"SE TEPEYAC","Fase":"En operacion","Voltaje_KV":115}},
{"type":"Feature","geometry":{"type":"Point","coordinates":[-97.4368623367795,20.46587683014706]},"properties":{"Name":"SE PETROQUIMICA ESCOLIN","Fase":"En operacion","Voltaje_KV":115}},
{"type":"Feature","geometry":{"type":"Point","coordinates":[-97.33778931632867,20.394838929820892]},"properties":{"Name":"SE TAJIN","Fase":"En operacion","Voltaje_KV":115}},
{"type":"Feature","geometry":{"type":"Point","coordinates":[-96.8836555,20.3361965]},"properties":{"Name":"SE GUADALUPE","Fase":"En operacion","Voltaje_KV":115}},
{"type":"Feature","geometry":{"type":"Point","coordinates":[-97.07600915903369,20.060423993801585]},"properties":{"Name":"SE MARTï¿½NEZ DE LA TORRE II","Fase":"En operacion","Voltaje_KV":115}},
{"type":"Feature","geometry":{"type":"Point","coordinates":[-96.64266499999998,20.033542]},"properties":{"Name":"SE VEGA DE ALATORRE","Fase":"En operacion","Voltaje_KV":115}},
{"type":"Feature","geometry":{"type":"Point","coordinates":[-96.83958181223687,19.93146605236836]},"properties":{"Name":"SE MISANTLA II","Fase":"En operacion","Voltaje_KV":115}},
{"type":"Feature","geometry":{"type":"Point","coordinates":[-97.67514532824605,20.483647662373777]},"properties":{"Name":"SE AGUA FRIA","Fase":"En operacion","Voltaje_KV":115}},
{"type":"Feature","geometry":{"type":"Point","coordinates":[-97.48935199530482,20.28982266678457]},"properties":{"Name":"SE ENTABLADERO","Fase":"En operacion","Voltaje_KV":115}},
{"type":"Feature","geometry":{"type":"Point","coordinates":[-96.91143517986804,20.173756542445332]},"properties":{"Name":"SE SAN RAFAEL II","Fase":"En operacion","Voltaje_KV":115}},
{"type":"Feature","geometry":{"type":"Point","coordinates":[-97.2055225,19.976217]},"properties":{"Name":"SE TLAPACOYAN","Fase":"En operacion","Voltaje_KV":115}},
{"type":"Feature","geometry":{"type":"Point","coordinates":[-97.36426782075496,19.800737541667946]},"properties":{"Name":"SE TEZIUTLAN","Fase":"En operacion","Voltaje_KV":115}},
{"type":"Feature","geometry":{"type":"Point","coordinates":[-97.47333300000001,19.7244905]},"properties":{"Name":"SE HUMEROS II","Fase":"En operacion","Voltaje_KV":115}},
{"type":"Feature","geometry":{"type":"Point","coordinates":[-97.56716799999998,19.8388735]},"properties":{"Name":"SE ZACAPOAXTLA","Fase":"En operacion","Voltaje_KV":115}},
{"type":"Feature","geometry":{"type":"Point","coordinates":[-97.462527,19.864174499999997]},"properties":{"Name":"SE HUEYAPAN","Fase":"En operacion","Voltaje_KV":115}},
{"type":"Feature","geometry":{"type":"Point","coordinates":[-97.15281500000002,19.681078999999997]},"properties":{"Name":"SE CH MINAS","Fase":"En operacion","Voltaje_KV":115}},
{"type":"Feature","geometry":{"type":"Point","coordinates":[-97.11712099999998,19.637502]},"properties":{"Name":"SE VIGAS","Fase":"En operacion","Voltaje_KV":115}},
{"type":"Feature","geometry":{"type":"Point","coordinates":[-96.4206326268116,19.718024426392066]},"properties":{"Name":"SE PUNTA LIMON","Fase":"En operacion","Voltaje_KV":115}},
{"type":"Feature","geometry":{"type":"Point","coordinates":[-96.30903105421794,19.201115114364107]},"properties":{"Name":"SE SANTA FE","Fase":"En operacion","Voltaje_KV":115}},
{"type":"Feature","geometry":{"type":"Point","coordinates":[-98.42070101873564,19.302338026612535]},"properties":{"Name":"SE SAN MARTï¿½N POT.","Fase":"En operacion","Voltaje_KV":400}},
{"type":"Feature","geometry":{"type":"Point","coordinates":[-97.04812102725742,18.891651328448148]},"properties":{"Name":"SE OJO DE AGUA POTENCIA","Fase":"En operacion","Voltaje_KV":400}},
{"type":"Feature","geometry":{"type":"Point","coordinates":[-97.13485686470057,18.851168916165257]},"properties":{"Name":"SE RIO BLANCO","Fase":"En operacion","Voltaje_KV":115}},
{"type":"Feature","geometry":{"type":"Point","coordinates":[-96.91703272160021,19.545920231894637]},"properties":{"Name":"SE EL CERRO (JALAPA I)","Fase":"En operacion","Voltaje_KV":115}},
{"type":"Feature","geometry":{"type":"Point","coordinates":[-96.86762977856975,19.505168620762895]},"properties":{"Name":"SE LAS TRANCAS","Fase":"En operacion","Voltaje_KV":115}},
{"type":"Feature","geometry":{"type":"Point","coordinates":[-96.4833997553876,19.339439394436674]},"properties":{"Name":"SE TAMARINDO II","Fase":"En operacion","Voltaje_KV":115}},
{"type":"Feature","geometry":{"type":"Point","coordinates":[-96.92052500000001,19.510969000000003]},"properties":{"Name":"SE JALAPA II","Fase":"En operacion","Voltaje_KV":115}},
{"type":"Feature","geometry":{"type":"Point","coordinates":[-96.9142588934649,19.43080048311951]},"properties":{"Name":"SE COATEPEC","Fase":"En operacion","Voltaje_KV":115}},
{"type":"Feature","geometry":{"type":"Point","coordinates":[-98.19297449999999,19.198585]},"properties":{"Name":"SE CONTLA","Fase":"En operacion","Voltaje_KV":115}},
{"type":"Feature","geometry":{"type":"Point","coordinates":[-98.2025295763264,19.315679791133952]},"properties":{"Name":"SE SANTA ANA CHIAUTEMPAN","Fase":"En operacion","Voltaje_KV":115}},
{"type":"Feature","geometry":{"type":"Point","coordinates":[-98.39490550246659,19.185250524653373]},"properties":{"Name":"SE HUEJOTZINGO II","Fase":"En operacion","Voltaje_KV":115}},
{"type":"Feature","geometry":{"type":"Point","coordinates":[-98.30373900000001,19.1779315]},"properties":{"Name":"SE KRUPP METALURGICA","Fase":"En operacion","Voltaje_KV":115}},
{"type":"Feature","geometry":{"type":"Point","coordinates":[-98.41729500000001,19.254331000000004]},"properties":{"Name":"SE CP INDEPENDENCIA","Fase":"En operacion","Voltaje_KV":115}},
{"type":"Feature","geometry":{"type":"Point","coordinates":[-98.46322500000001,19.271015000000002]},"properties":{"Name":"SE EL MORAL","Fase":"En operacion","Voltaje_KV":115}},
{"type":"Feature","geometry":{"type":"Point","coordinates":[-98.41147383505259,19.29200887405933]},"properties":{"Name":"SE SAN MARTï¿½N DISTRIBUCIï¿½N","Fase":"En operacion","Voltaje_KV":115}},
{"type":"Feature","geometry":{"type":"Point","coordinates":[-97.9186235,18.9516235]},"properties":{"Name":"SE TEPEACA","Fase":"En operacion","Voltaje_KV":115}},
{"type":"Feature","geometry":{"type":"Point","coordinates":[-98.29914732135168,19.02938654097062]},"properties":{"Name":"SE TONANZINTLA (UNIVERSIDAD)","Fase":"En operacion","Voltaje_KV":115}},
{"type":"Feature","geometry":{"type":"Point","coordinates":[-97.3792968209201,18.440186541796926]},"properties":{"Name":"SE COAPAN","Fase":"En operacion","Voltaje_KV":115}},
{"type":"Feature","geometry":{"type":"Point","coordinates":[-96.31073500000001,18.801875000000003]},"properties":{"Name":"SE FISISA","Fase":"En operacion","Voltaje_KV":115}},
{"type":"Feature","geometry":{"type":"Point","coordinates":[-96.23174994303245,18.605685885280455]},"properties":{"Name":"SE PIEDRAS NEGRAS","Fase":"En operacion","Voltaje_KV":115}},
{"type":"Feature","geometry":{"type":"Point","coordinates":[-97.43905893096787,17.57044266461781]},"properties":{"Name":"SE YUCUDAA","Fase":"En operacion","Voltaje_KV":115}},
{"type":"Feature","geometry":{"type":"Point","coordinates":[-97.7862655,17.786184]},"properties":{"Name":"SE HUAJUAPAN","Fase":"En operacion","Voltaje_KV":115}},
{"type":"Feature","geometry":{"type":"Point","coordinates":[-96.37898545933852,19.38241908885463]},"properties":{"Name":"SE CARDEL","Fase":"En operacion","Voltaje_KV":115}},
{"type":"Feature","geometry":{"type":"Point","coordinates":[-96.23697224401575,19.150972538241287]},"properties":{"Name":"SE VERACRUZ II","Fase":"En operacion","Voltaje_KV":115}},
{"type":"Feature","geometry":{"type":"Point","coordinates":[-96.19466746707417,19.199970249862588]},"properties":{"Name":"SE LAS BRISAS","Fase":"En operacion","Voltaje_KV":115}},
{"type":"Feature","geometry":{"type":"Point","coordinates":[-96.16970896587772,19.16522993614456]},"properties":{"Name":"SE JB LOBOS","Fase":"En operacion","Voltaje_KV":115}},
{"type":"Feature","geometry":{"type":"Point","coordinates":[-96.13536409017878,19.158966082772437]},"properties":{"Name":"SE VERACRUZ I","Fase":"En operacion","Voltaje_KV":115}},
{"type":"Feature","geometry":{"type":"Point","coordinates":[-96.14747941017374,19.085562748213906]},"properties":{"Name":"SE DOS BOCAS","Fase":"En operacion","Voltaje_KV":115}},
{"type":"Feature","geometry":{"type":"Point","coordinates":[-96.6783822870633,17.08052485029006]},"properties":{"Name":"SE OAXACA II","Fase":"En operacion","Voltaje_KV":115}},
{"type":"Feature","geometry":{"type":"Point","coordinates":[-96.73665980077091,18.823835580285067]},"properties":{"Name":"SE CUITLAHUAC","Fase":"En operacion","Voltaje_KV":115}},
{"type":"Feature","geometry":{"type":"Point","coordinates":[-96.90225910868617,18.85780818161273]},"properties":{"Name":"SE AMATLAN II","Fase":"En operacion","Voltaje_KV":230}},
{"type":"Feature","geometry":{"type":"Point","coordinates":[-97.04310310196524,18.858273709261745]},"properties":{"Name":"SE CEMENTOS VERACRUZ","Fase":"En operacion","Voltaje_KV":115}},
{"type":"Feature","geometry":{"type":"Point","coordinates":[-97.10210475815325,18.834916295579568]},"properties":{"Name":"SE CERVECERA MOCTEZUMA","Fase":"En operacion","Voltaje_KV":115}},
{"type":"Feature","geometry":{"type":"Point","coordinates":[-96.1372184646003,18.071104668504073]},"properties":{"Name":"SE CERVECERA DEL TROPICO","Fase":"En operacion","Voltaje_KV":115}},
{"type":"Feature","geometry":{"type":"Point","coordinates":[-96.95274066953648,18.885120267228583]},"properties":{"Name":"SE CORDOBA I","Fase":"En operacion","Voltaje_KV":115}},
{"type":"Feature","geometry":{"type":"Point","coordinates":[-96.9180582329509,18.87427342608406]},"properties":{"Name":"SE CORDOBA II","Fase":"En operacion","Voltaje_KV":115}},
{"type":"Feature","geometry":{"type":"Point","coordinates":[-97.1038839227405,18.887829157314215]},"properties":{"Name":"SE ESCAMELA","Fase":"En operacion","Voltaje_KV":115}},
{"type":"Feature","geometry":{"type":"Point","coordinates":[-97.00139810369839,18.914175605069875]},"properties":{"Name":"SE FORTIN","Fase":"En operacion","Voltaje_KV":115}},
{"type":"Feature","geometry":{"type":"Point","coordinates":[-97.07034974505946,18.86756006022565]},"properties":{"Name":"SE FERMEX","Fase":"En operacion","Voltaje_KV":115}},
{"type":"Feature","geometry":{"type":"Point","coordinates":[-96.09362222905906,18.174777283154082]},"properties":{"Name":"SE GABINO BARREDA","Fase":"En operacion","Voltaje_KV":115}},
{"type":"Feature","geometry":{"type":"Point","coordinates":[-96.26146847304463,18.354320020942435]},"properties":{"Name":"SE LA GRANJA III","Fase":"En operacion","Voltaje_KV":115}},
{"type":"Feature","geometry":{"type":"Point","coordinates":[-97.16853587310544,18.81222001302408]},"properties":{"Name":"SE NOGALES","Fase":"En operacion","Voltaje_KV":115}},
{"type":"Feature","geometry":{"type":"Point","coordinates":[-96.79950643775454,18.889192029021018]},"properties":{"Name":"SE POTRERO II","Fase":"En operacion","Voltaje_KV":115}},
{"type":"Feature","geometry":{"type":"Point","coordinates":[-97.10617914137148,18.833303198020594]},"properties":{"Name":"SE SEVISA","Fase":"En operacion","Voltaje_KV":115}},
{"type":"Feature","geometry":{"type":"Point","coordinates":[-97.04491004076658,18.87097625990134]},"properties":{"Name":"SE TALLERES Y ACEROS","Fase":"En operacion","Voltaje_KV":115}},
{"type":"Feature","geometry":{"type":"Point","coordinates":[-96.36443299146121,18.483624915195563]},"properties":{"Name":"SE TIERRA BLANCA II","Fase":"En operacion","Voltaje_KV":115}},
{"type":"Feature","geometry":{"type":"Point","coordinates":[-97.03284934443852,18.837363567510238]},"properties":{"Name":"SE TUXPANGO","Fase":"En operacion","Voltaje_KV":115}},
{"type":"Feature","geometry":{"type":"Point","coordinates":[-96.13678907289298,18.06961268347145]},"properties":{"Name":"SE TUXTEPEC II","Fase":"En operacion","Voltaje_KV":115}},
{"type":"Feature","geometry":{"type":"Point","coordinates":[-96.32999265309995,18.456254318119342]},"properties":{"Name":"SE VIDRIERA TIERRA BLANCA","Fase":"En operacion","Voltaje_KV":115}},
{"type":"Feature","geometry":{"type":"Point","coordinates":[-96.99338772777296,18.67589238309072]},"properties":{"Name":"SE ZONGOLICA","Fase":"En operacion","Voltaje_KV":115}},
{"type":"Feature","geometry":{"type":"Point","coordinates":[-98.04411604492665,18.215201279364432]},"properties":{"Name":"SE ACATLAN","Fase":"En operacion","Voltaje_KV":115}},
{"type":"Feature","geometry":{"type":"Point","coordinates":[-97.82221192799176,19.393204240908183]},"properties":{"Name":"SE ALTZAYANCA","Fase":"En operacion","Voltaje_KV":115}},
{"type":"Feature","geometry":{"type":"Point","coordinates":[-97.3317609456842,18.41755616140596]},"properties":{"Name":"SE APECSA","Fase":"En operacion","Voltaje_KV":115}},
{"type":"Feature","geometry":{"type":"Point","coordinates":[-98.63765023623783,18.490458761630617]},"properties":{"Name":"SE ATENCINGO","Fase":"En operacion","Voltaje_KV":115}},
{"type":"Feature","geometry":{"type":"Point","coordinates":[-98.1928380843965,19.365562323071295]},"properties":{"Name":"SE ATLIHUETZIA","Fase":"En operacion","Voltaje_KV":115}},
{"type":"Feature","geometry":{"type":"Point","coordinates":[-97.17522470982884,19.983183554632387]},"properties":{"Name":"SE C.H. ENCANTO","Fase":"En operacion","Voltaje_KV":115}},
{"type":"Feature","geometry":{"type":"Point","coordinates":[-97.06901478933987,20.426138259215406]},"properties":{"Name":"SE GUTIERREZ ZAMORA","Fase":"En operacion","Voltaje_KV":115}},
{"type":"Feature","geometry":{"type":"Point","coordinates":[-97.9054187039764,22.493652022145692]},"properties":{"Name":"SE PUERTO ALTAMIRA","Fase":"En operacion","Voltaje_KV":400}},
{"type":"Feature","geometry":{"type":"Point","coordinates":[-97.90553438803973,22.488805664720992]},"properties":{"Name":"SE PUERTO","Fase":"En operacion","Voltaje_KV":400}},
{"type":"Feature","geometry":{"type":"Point","coordinates":[-98.75162128159465,21.31017777183312]},"properties":{"Name":"SE LAS MESAS","Fase":"En operacion","Voltaje_KV":400}},
{"type":"Feature","geometry":{"type":"Point","coordinates":[-100.27923175848454,20.467793518212652]},"properties":{"Name":"SE QUERETARO POT. MANIOBRAS","Fase":"En operacion","Voltaje_KV":115}},
{"type":"Feature","geometry":{"type":"Point","coordinates":[-98.24221081464862,19.120534539629062]},"properties":{"Name":"SE SAN LORENZO POT.","Fase":"En operacion","Voltaje_KV":400}},
{"type":"Feature","geometry":{"type":"Point","coordinates":[-98.13764886129856,19.08197102349941]},"properties":{"Name":"SE PUEBLA II","Fase":"En operacion","Voltaje_KV":400}},
{"type":"Feature","geometry":{"type":"Point","coordinates":[-97.24570675586547,20.839009669037033]},"properties":{"Name":"SE TRES ESTRELLAS","Fase":"En operacion","Voltaje_KV":400}},
{"type":"Feature","geometry":{"type":"Point","coordinates":[-97.5042014898173,20.50942475295356]},"properties":{"Name":"SE POZA RICA II","Fase":"En operacion","Voltaje_KV":400}},
{"type":"Feature","geometry":{"type":"Point","coordinates":[-98.8398849662097,19.54386471376076]},"properties":{"Name":"SE TEXCOCO POT.","Fase":"En operacion","Voltaje_KV":400}},
{"type":"Feature","geometry":{"type":"Point","coordinates":[-96.3535989602094,18.217944680759068]},"properties":{"Name":"SE CERRO DE ORO","Fase":"En operacion","Voltaje_KV":400}},
{"type":"Feature","geometry":{"type":"Point","coordinates":[-97.97728238571412,18.84792545096596]},"properties":{"Name":"SE TECALI","Fase":"En operacion","Voltaje_KV":400}},
{"type":"Feature","geometry":{"type":"Point","coordinates":[-96.40812458432038,19.719815710339326]},"properties":{"Name":"SE LAGUNA VERDE","Fase":"En operacion","Voltaje_KV":400}},
{"type":"Feature","geometry":{"type":"Point","coordinates":[-98.00733943656965,22.437658456086282]},"properties":{"Name":"SE ALTAMIRA","Fase":"En operacion","Voltaje_KV":400}},
{"type":"Feature","geometry":{"type":"Point","coordinates":[-98.18362937688585,22.607660596565598]},"properties":{"Name":"SE CHAMPAYAN","Fase":"En operacion","Voltaje_KV":400}},
{"type":"Feature","geometry":{"type":"Point","coordinates":[-98.00507704234624,22.223238044217823]},"properties":{"Name":"SE TAMOS","Fase":"En operacion","Voltaje_KV":400}},
{"type":"Feature","geometry":{"type":"Point","coordinates":[-97.86993811283241,22.317829142759425]},"properties":{"Name":"SE TAMPICO","Fase":"En operacion","Voltaje_KV":230}},
{"type":"Feature","geometry":{"type":"Point","coordinates":[-98.0242666698432,22.233816427180958]},"properties":{"Name":"SE MINERA AUTLAN","Fase":"En operacion","Voltaje_KV":230}},
{"type":"Feature","geometry":{"type":"Point","coordinates":[-96.39080726498409,18.25471200509631]},"properties":{"Name":"SE TEMASCAL II","Fase":"En operacion","Voltaje_KV":400}},
{"type":"Feature","geometry":{"type":"Point","coordinates":[-96.78814526372547,17.122812773259252]},"properties":{"Name":"SE OAXACA POT.","Fase":"En operacion","Voltaje_KV":230}},
{"type":"Feature","geometry":{"type":"Point","coordinates":[-96.78137184572988,16.901733494474225]},"properties":{"Name":"SE LA CIENEGA","Fase":"En operacion","Voltaje_KV":230}},
{"type":"Feature","geometry":{"type":"Point","coordinates":[-96.73299911495486,16.57736133030069]},"properties":{"Name":"SE EJUTLA","Fase":"En operacion","Voltaje_KV":115}},
{"type":"Feature","geometry":{"type":"Point","coordinates":[-97.26722668800961,19.78445738812053]},"properties":{"Name":"SE JALACINGO","Fase":"En operacion","Voltaje_KV":230}},
{"type":"Feature","geometry":{"type":"Point","coordinates":[-98.15564389220184,19.0707573187972]},"properties":{"Name":"SE INDUSTRIAL","Fase":"En operacion","Voltaje_KV":115}},
{"type":"Feature","geometry":{"type":"Point","coordinates":[-97.33318912736141,21.011646689736033]},"properties":{"Name":"SE LA BARRA","Fase":"En operacion","Voltaje_KV":115}},
{"type":"Feature","geometry":{"type":"Point","coordinates":[-97.31512176251861,20.976202667708847]},"properties":{"Name":"SE LA BARRA NORTE PEMEX","Fase":"En operacion","Voltaje_KV":115}},
{"type":"Feature","geometry":{"type":"Point","coordinates":[-97.45171608046529,20.957654780287168]},"properties":{"Name":"SE EL ESFUERZO","Fase":"En operacion","Voltaje_KV":115}},
{"type":"Feature","geometry":{"type":"Point","coordinates":[-97.71927912148885,20.982977061676912]},"properties":{"Name":"SE PANTEPEC","Fase":"En operacion","Voltaje_KV":230}},
{"type":"Feature","geometry":{"type":"Point","coordinates":[-97.71037308098535,20.944080084436067]},"properties":{"Name":"SE TIHUATLAN II","Fase":"En operacion","Voltaje_KV":115}},
{"type":"Feature","geometry":{"type":"Point","coordinates":[-97.3831481045681,20.93627048009603]},"properties":{"Name":"SE TUXPAN II","Fase":"En operacion","Voltaje_KV":115}},
{"type":"Feature","geometry":{"type":"Point","coordinates":[-97.7987615828569,21.290065219768735]},"properties":{"Name":"SE CERRO AZUL","Fase":"En operacion","Voltaje_KV":115}},
{"type":"Feature","geometry":{"type":"Point","coordinates":[-98.151764,21.006976499999997]},"properties":{"Name":"SE CHICONTEPEC","Fase":"En operacion","Voltaje_KV":115}},
{"type":"Feature","geometry":{"type":"Point","coordinates":[-98.0108545,20.733963000000003]},"properties":{"Name":"SE IXHUATLAN","Fase":"En operacion","Voltaje_KV":115}},
{"type":"Feature","geometry":{"type":"Point","coordinates":[-97.52525550000001,20.672603000000006]},"properties":{"Name":"SE BUENA VISTA","Fase":"En operacion","Voltaje_KV":115}},
{"type":"Feature","geometry":{"type":"Point","coordinates":[-97.79370459923538,18.97038235901702]},"properties":{"Name":"SE ACATZINGO","Fase":"En operacion","Voltaje_KV":115}},
{"type":"Feature","geometry":{"type":"Point","coordinates":[-97.54166563911261,18.855031468902776]},"properties":{"Name":"SE PALMAR DE BRAVO","Fase":"En operacion","Voltaje_KV":115}},
{"type":"Feature","geometry":{"type":"Point","coordinates":[-98.19203828497933,19.085289629802237]},"properties":{"Name":"SE CONDE","Fase":"En operacion","Voltaje_KV":115}},
{"type":"Feature","geometry":{"type":"Point","coordinates":[-98.20751232155723,19.108581084958292]},"properties":{"Name":"SE NORTE","Fase":"En operacion","Voltaje_KV":115}},
{"type":"Feature","geometry":{"type":"Point","coordinates":[-98.1725602688213,19.061826230599273]},"properties":{"Name":"SE FUERTES","Fase":"En operacion","Voltaje_KV":115}},
{"type":"Feature","geometry":{"type":"Point","coordinates":[-98.19627745320497,19.082782284682516]},"properties":{"Name":"SE METALOIDES","Fase":"En operacion","Voltaje_KV":115}},
{"type":"Feature","geometry":{"type":"Point","coordinates":[-98.1514105035113,19.06447806639322]},"properties":{"Name":"SE PUEBLA 2000","Fase":"En operacion","Voltaje_KV":115}},
{"type":"Feature","geometry":{"type":"Point","coordinates":[-98.15525555092013,19.06441336180806]},"properties":{"Name":"SE FEDERAL MOGUL","Fase":"En operacion","Voltaje_KV":115}},
{"type":"Feature","geometry":{"type":"Point","coordinates":[-98.14742675962762,19.0404064671026]},"properties":{"Name":"SE ORIENTE","Fase":"En operacion","Voltaje_KV":115}},
{"type":"Feature","geometry":{"type":"Point","coordinates":[-98.17884953933789,19.000606484288223]},"properties":{"Name":"SE GUADALUPE ANALCO","Fase":"En operacion","Voltaje_KV":115}},
{"type":"Feature","geometry":{"type":"Point","coordinates":[-98.15999325587212,18.952003610230147]},"properties":{"Name":"SE VALSEQUILLO","Fase":"En operacion","Voltaje_KV":115}},
{"type":"Feature","geometry":{"type":"Point","coordinates":[-98.24907571652984,18.986310935990996]},"properties":{"Name":"SE AGUA SANTA","Fase":"En operacion","Voltaje_KV":115}},
{"type":"Feature","geometry":{"type":"Point","coordinates":[-98.0156121032403,19.06121169974977]},"properties":{"Name":"SE AMOZOC","Fase":"En operacion","Voltaje_KV":115}},
{"type":"Feature","geometry":{"type":"Point","coordinates":[-97.40410759110563,18.838610879562562]},"properties":{"Name":"SE ESPERANZA","Fase":"En operacion","Voltaje_KV":115}},
{"type":"Feature","geometry":{"type":"Point","coordinates":[-98.95943849999998,21.4763895]},"properties":{"Name":"SE HUICHIHUAYAN","Fase":"En operacion","Voltaje_KV":115}},
{"type":"Feature","geometry":{"type":"Point","coordinates":[-98.86834305860289,22.04488869073263]},"properties":{"Name":"SE CEMENTOS ANAHUAC","Fase":"En operacion","Voltaje_KV":115}},
{"type":"Feature","geometry":{"type":"Point","coordinates":[-98.95912984021173,21.98921658786181]},"properties":{"Name":"SE CEMENTOS MEXICANOS","Fase":"En operacion","Voltaje_KV":115}},
{"type":"Feature","geometry":{"type":"Point","coordinates":[-99.0220701684144,21.97086920270727]},"properties":{"Name":"SE MUSEO","Fase":"En operacion","Voltaje_KV":115}},
{"type":"Feature","geometry":{"type":"Point","coordinates":[-94.3010660551793,17.94173064669766]},"properties":{"Name":"SE CUICHAPA II","Fase":"En operacion","Voltaje_KV":115}},
{"type":"Feature","geometry":{"type":"Point","coordinates":[-94.40037416474718,18.112297502493565]},"properties":{"Name":"SE COLORADOS","Fase":"En operacion","Voltaje_KV":115}},
{"type":"Feature","geometry":{"type":"Point","coordinates":[-95.7814423762682,18.7825072169279]},"properties":{"Name":"SE ALVARADO","Fase":"En operacion","Voltaje_KV":115}},
{"type":"Feature","geometry":{"type":"Point","coordinates":[-95.75881383524013,18.37195401839314]},"properties":{"Name":"SE CARLOS CARRILLO","Fase":"En operacion","Voltaje_KV":115}},
{"type":"Feature","geometry":{"type":"Point","coordinates":[-95.15330495632782,18.419984412119067]},"properties":{"Name":"SE P.H. CHILAPAN","Fase":"En operacion","Voltaje_KV":115}},
{"type":"Feature","geometry":{"type":"Point","coordinates":[-94.38837805889713,18.11692537527929]},"properties":{"Name":"SE AGRONITROGENADOS","Fase":"En operacion","Voltaje_KV":115}},
{"type":"Feature","geometry":{"type":"Point","coordinates":[-95.02005516421426,16.446336614319396]},"properties":{"Name":"SE JUCHITAN I","Fase":"En operacion","Voltaje_KV":115}},
{"type":"Feature","geometry":{"type":"Point","coordinates":[-95.08044184670577,16.54527313453068]},"properties":{"Name":"SE IXTEPEC","Fase":"En operacion","Voltaje_KV":115}},
{"type":"Feature","geometry":{"type":"Point","coordinates":[-95.53447935385073,18.116208814982713]},"properties":{"Name":"SE ISLA","Fase":"En operacion","Voltaje_KV":115}},
{"type":"Feature","geometry":{"type":"Point","coordinates":[-94.54383818737107,18.12114233888774]},"properties":{"Name":"SE CANTICAS","Fase":"En operacion","Voltaje_KV":115}},
{"type":"Feature","geometry":{"type":"Point","coordinates":[-95.21939396051982,16.341430724548967]},"properties":{"Name":"SE TEHUANTEPEC","Fase":"En operacion","Voltaje_KV":115}},
{"type":"Feature","geometry":{"type":"Point","coordinates":[-94.42760160279667,16.485982037211215]},"properties":{"Name":"SE ZANATEPEC","Fase":"En operacion","Voltaje_KV":115}},
{"type":"Feature","geometry":{"type":"Point","coordinates":[-95.17735938461539,16.19662582051282]},"properties":{"Name":"SE AGUA PROCESS","Fase":"En operacion","Voltaje_KV":115}},
{"type":"Feature","geometry":{"type":"Point","coordinates":[-95.20307605374757,16.20306802378003]},"properties":{"Name":"SE SALINA CRUZ I","Fase":"En operacion","Voltaje_KV":115}},
{"type":"Feature","geometry":{"type":"Point","coordinates":[-94.76871511223665,16.57147556818261]},"properties":{"Name":"SE SANTO DOMINGO","Fase":"En operacion","Voltaje_KV":115}},
{"type":"Feature","geometry":{"type":"Point","coordinates":[-95.06962923467401,16.802271279806813]},"properties":{"Name":"SE CEMENTOS CRUZ AZUL","Fase":"En operacion","Voltaje_KV":115}},
{"type":"Feature","geometry":{"type":"Point","coordinates":[-94.80609282719806,17.896152706257553]},"properties":{"Name":"TEXISTEPEC","Fase":"En operacion","Voltaje_KV":115}},
{"type":"Feature","geometry":{"type":"Point","coordinates":[-95.18337180357851,16.21398439414031]},"properties":{"Name":"SE REFINERIA SALINA CRUZ","Fase":"En operacion","Voltaje_KV":115}},
{"type":"Feature","geometry":{"type":"Point","coordinates":[-94.55971192009861,18.00406747231026]},"properties":{"Name":"SE COSOLEACAQUE","Fase":"En operacion","Voltaje_KV":115}},
{"type":"Feature","geometry":{"type":"Point","coordinates":[-95.04865537000383,17.20942499353923]},"properties":{"Name":"SE DONAJI","Fase":"En operacion","Voltaje_KV":115}},
{"type":"Feature","geometry":{"type":"Point","coordinates":[-96.40074405275199,16.918110874796735]},"properties":{"Name":"SE MITLA","Fase":"En operacion","Voltaje_KV":115}},
{"type":"Feature","geometry":{"type":"Point","coordinates":[-90.17402643243136,19.725762881999284]},"properties":{"Name":"S.E. CAYAL","Fase":"En operacion","Voltaje_KV":115}},
{"type":"Feature","geometry":{"type":"Point","coordinates":[-90.47776445405005,19.85112494993542]},"properties":{"Name":"S.E. KALA","Fase":"En operacion","Voltaje_KV":115}},
{"type":"Feature","geometry":{"type":"Point","coordinates":[-90.5064289925297,19.809315671213998]},"properties":{"Name":"S.E. SAMULA II","Fase":"En operacion","Voltaje_KV":115}},
{"type":"Feature","geometry":{"type":"Point","coordinates":[-90.54244210903768,19.82126442384394]},"properties":{"Name":"S.E. SAMULA I","Fase":"En operacion","Voltaje_KV":115}},
{"type":"Feature","geometry":{"type":"Point","coordinates":[-90.6129791055191,19.79445365626002]},"properties":{"Name":"S.E. LERMA","Fase":"En operacion","Voltaje_KV":115}},
{"type":"Feature","geometry":{"type":"Point","coordinates":[-90.72765954635318,19.32472906100454]},"properties":{"Name":"S.E. CHAMPOTON","Fase":"En operacion","Voltaje_KV":115}},
{"type":"Feature","geometry":{"type":"Point","coordinates":[-90.76268083475809,18.610778662441255]},"properties":{"Name":"S.E. ESCARCEGA POTENCIA","Fase":"En operacion","Voltaje_KV":115}},
{"type":"Feature","geometry":{"type":"Point","coordinates":[-91.19154912217341,18.961899519742236]},"properties":{"Name":"S.E. SABANCUY II","Fase":"En operacion","Voltaje_KV":115}},
{"type":"Feature","geometry":{"type":"Point","coordinates":[-91.31083646934442,18.935262761987634]},"properties":{"Name":"S.E. SABANCUY","Fase":"En operacion","Voltaje_KV":115}},
{"type":"Feature","geometry":{"type":"Point","coordinates":[-91.49004423074904,18.79290376046543]},"properties":{"Name":"S.E. PALMAR","Fase":"En operacion","Voltaje_KV":115}},
{"type":"Feature","geometry":{"type":"Point","coordinates":[-91.79561946038335,18.658550534259554]},"properties":{"Name":"S.E. CD. DEL CARMEN","Fase":"En operacion","Voltaje_KV":115}},
{"type":"Feature","geometry":{"type":"Point","coordinates":[-91.8230781258835,18.635051507541043]},"properties":{"Name":"S.E. CONCORDIA","Fase":"En operacion","Voltaje_KV":115}},
{"type":"Feature","geometry":{"type":"Point","coordinates":[-91.75671997568472,17.72832703908348]},"properties":{"Name":"S.E. ZAPATA PONIENTE","Fase":"En operacion","Voltaje_KV":115}},
{"type":"Feature","geometry":{"type":"Point","coordinates":[-91.45526275067223,17.45669206933103]},"properties":{"Name":"S.E. TENOSIQUE","Fase":"En operacion","Voltaje_KV":115}},
{"type":"Feature","geometry":{"type":"Point","coordinates":[-91.09702817944108,16.81544528551359]},"properties":{"Name":"S.E. LACANJA","Fase":"En operacion","Voltaje_KV":115}},
{"type":"Feature","geometry":{"type":"Point","coordinates":[-91.99276458590488,17.52208892309042]},"properties":{"Name":"S.E. PALENQUE","Fase":"En operacion","Voltaje_KV":115}},
{"type":"Feature","geometry":{"type":"Point","coordinates":[-92.44269272633387,17.649969045685932]},"properties":{"Name":"S.E. CEMENTOS APASCO","Fase":"En operacion","Voltaje_KV":115}},
{"type":"Feature","geometry":{"type":"Point","coordinates":[-92.44065064735646,17.669902840109348]},"properties":{"Name":"S.E. EL ZOPO","Fase":"En operacion","Voltaje_KV":115}},
{"type":"Feature","geometry":{"type":"Point","coordinates":[-92.49225490157406,17.88337212885541]},"properties":{"Name":"S.E. CD. PEMEX","Fase":"En operacion","Voltaje_KV":115}},
{"type":"Feature","geometry":{"type":"Point","coordinates":[-92.60797374261325,17.832729638121236]},"properties":{"Name":"S.E. MACUSPANA II","Fase":"En operacion","Voltaje_KV":230}},
{"type":"Feature","geometry":{"type":"Point","coordinates":[-92.61374763460628,17.744432326531435]},"properties":{"Name":"S.E. MACUSPANA","Fase":"En operacion","Voltaje_KV":115}},
{"type":"Feature","geometry":{"type":"Point","coordinates":[-92.92612738978427,17.86245227490308]},"properties":{"Name":"S.E. PARRILLA","Fase":"En operacion","Voltaje_KV":115}},
{"type":"Feature","geometry":{"type":"Point","coordinates":[-92.9258151290658,17.84417376915029]},"properties":{"Name":"S.E. KILOMETRO 20","Fase":"En operacion","Voltaje_KV":230}},
{"type":"Feature","geometry":{"type":"Point","coordinates":[-92.9659157698868,17.581639598675796]},"properties":{"Name":"S.E. TEAPA","Fase":"En operacion","Voltaje_KV":115}},
{"type":"Feature","geometry":{"type":"Point","coordinates":[-93.114978767265,17.497611983357118]},"properties":{"Name":"S.E. PICHUCALCO","Fase":"En operacion","Voltaje_KV":115}},
{"type":"Feature","geometry":{"type":"Point","coordinates":[-93.12397900000718,17.86635416014799]},"properties":{"Name":"S.E. NUEVO PEMEX","Fase":"En operacion","Voltaje_KV":115}},
{"type":"Feature","geometry":{"type":"Point","coordinates":[-92.97255353575544,17.957550152997705]},"properties":{"Name":"S.E. TAMULTE","Fase":"En operacion","Voltaje_KV":115}},
{"type":"Feature","geometry":{"type":"Point","coordinates":[-92.92758255475086,17.973663817250003]},"properties":{"Name":"S.E. VILLAHERMOSA II","Fase":"En operacion","Voltaje_KV":115}},
{"type":"Feature","geometry":{"type":"Point","coordinates":[-92.92856478357734,18.003132470959443]},"properties":{"Name":"S.E. VILLAHERMOSA I","Fase":"En operacion","Voltaje_KV":115}},
{"type":"Feature","geometry":{"type":"Point","coordinates":[-92.90126302227475,18.032212397978164]},"properties":{"Name":"S.E. CD. INDUSTRIAL","Fase":"En operacion","Voltaje_KV":115}},
{"type":"Feature","geometry":{"type":"Point","coordinates":[-92.92469156776127,18.049542960672156]},"properties":{"Name":"S.E. VILLAHERMOSA NORTE","Fase":"En operacion","Voltaje_KV":230}},
{"type":"Feature","geometry":{"type":"Point","coordinates":[-92.95907927894629,18.000776242948184]},"properties":{"Name":"S.E. LA CHOCA","Fase":"En operacion","Voltaje_KV":115}},
{"type":"Feature","geometry":{"type":"Point","coordinates":[-92.8657017430035,18.142722391805712]},"properties":{"Name":"S.E. MACULTEPEC","Fase":"En operacion","Voltaje_KV":115}},
{"type":"Feature","geometry":{"type":"Point","coordinates":[-92.6362206841469,18.523872201216562]},"properties":{"Name":"S.E. FRONTERA","Fase":"En operacion","Voltaje_KV":115}},
{"type":"Feature","geometry":{"type":"Point","coordinates":[-93.08924360508367,18.000537784271256]},"properties":{"Name":"S.E. SAMARIA","Fase":"En operacion","Voltaje_KV":115}},
{"type":"Feature","geometry":{"type":"Point","coordinates":[-93.19613449946061,17.900686340071495]},"properties":{"Name":"S.E. CACTUS","Fase":"En operacion","Voltaje_KV":115}},
{"type":"Feature","geometry":{"type":"Point","coordinates":[-93.16234923936236,17.85122123200247]},"properties":{"Name":"S.E. REFORMA","Fase":"En operacion","Voltaje_KV":115}},
{"type":"Feature","geometry":{"type":"Point","coordinates":[-90.06302896889238,20.37698811899566]},"properties":{"Name":"S.E. CALKINI","Fase":"En operacion","Voltaje_KV":115}},
{"type":"Feature","geometry":{"type":"Point","coordinates":[-91.86900018252679,17.758383047766856]},"properties":{"Name":"SE. LOS RIOS","Fase":"En operacion","Voltaje_KV":115}},
{"type":"Feature","geometry":{"type":"Point","coordinates":[-93.17804569121498,18.428298251590174]},"properties":{"Name":"S.E. DOS BOCAS","Fase":"En operacion","Voltaje_KV":115}},
{"type":"Feature","geometry":{"type":"Point","coordinates":[-93.23343046866167,18.380553900397008]},"properties":{"Name":"S.E. PARAISO","Fase":"En operacion","Voltaje_KV":115}},
{"type":"Feature","geometry":{"type":"Point","coordinates":[-93.21780215494056,18.28968581209293]},"properties":{"Name":"S.E. COMACALCO ORIENTE","Fase":"En operacion","Voltaje_KV":115}},
{"type":"Feature","geometry":{"type":"Point","coordinates":[-93.21124199484014,18.243908738117884]},"properties":{"Name":"S.E. COMACALCO","Fase":"En operacion","Voltaje_KV":115}},
{"type":"Feature","geometry":{"type":"Point","coordinates":[-93.09019659512478,18.178684106234137]},"properties":{"Name":"S.E. JALPA","Fase":"En operacion","Voltaje_KV":115}},
{"type":"Feature","geometry":{"type":"Point","coordinates":[-93.56089974476201,18.01805321241536]},"properties":{"Name":"S.E. CHONTALPA","Fase":"En operacion","Voltaje_KV":115}},
{"type":"Feature","geometry":{"type":"Point","coordinates":[-93.39335401985045,17.998800229259405]},"properties":{"Name":"S.E. CARDENAS I","Fase":"En operacion","Voltaje_KV":115}},
{"type":"Feature","geometry":{"type":"Point","coordinates":[-93.3415545342219,17.997344035650347]},"properties":{"Name":"S.E. CARDENAS II","Fase":"En operacion","Voltaje_KV":230}},
{"type":"Feature","geometry":{"type":"Point","coordinates":[-93.37888487107452,17.910695505890633]},"properties":{"Name":"S.E. PAREDON","Fase":"En operacion","Voltaje_KV":115}},
{"type":"Feature","geometry":{"type":"Point","coordinates":[-93.39676971130056,17.84268618348221]},"properties":{"Name":"S.E. HUIMANGUILLO","Fase":"En operacion","Voltaje_KV":115}},
{"type":"Feature","geometry":{"type":"Point","coordinates":[-93.48347235566503,17.65507689905676]},"properties":{"Name":"S.E. MEZCALAPA","Fase":"En operacion","Voltaje_KV":115}},
{"type":"Feature","geometry":{"type":"Point","coordinates":[-93.36086268331164,17.65858621498245]},"properties":{"Name":"S.E. GIRALDAS","Fase":"En operacion","Voltaje_KV":115}},
{"type":"Feature","geometry":{"type":"Point","coordinates":[-93.46470879582048,17.446411351487953]},"properties":{"Name":"S.E. PEï¿½ITAS","Fase":"En operacion","Voltaje_KV":230}},
{"type":"Feature","geometry":{"type":"Point","coordinates":[-93.59202062575675,17.17839403823851]},"properties":{"Name":"S.E. MALPASO I","Fase":"En operacion","Voltaje_KV":400}},
{"type":"Feature","geometry":{"type":"Point","coordinates":[-93.58702415902683,17.178226836262688]},"properties":{"Name":"S.E. MALPASO II","Fase":"En operacion","Voltaje_KV":400}},
{"type":"Feature","geometry":{"type":"Point","coordinates":[-94.32523477944606,18.00728021175796]},"properties":{"Name":"S.E. COATZACOALCOS","Fase":"En operacion","Voltaje_KV":400}},
{"type":"Feature","geometry":{"type":"Point","coordinates":[-94.39952220833347,18.029134397318796]},"properties":{"Name":"S.E. MINATITLAN II","Fase":"En operacion","Voltaje_KV":400}},
{"type":"Feature","geometry":{"type":"Point","coordinates":[-95.06044078509119,17.76244351698029]},"properties":{"Name":"S.E. EL JUILE","Fase":"En operacion","Voltaje_KV":400}},
{"type":"Feature","geometry":{"type":"Point","coordinates":[-93.09528632523552,16.93948624297837]},"properties":{"Name":"S.E. CHICOASEN(MANUEL MORENO TORRES)","Fase":"En operacion","Voltaje_KV":400}},
{"type":"Feature","geometry":{"type":"Point","coordinates":[-93.18890957149533,16.811509031634365]},"properties":{"Name":"S.E. EL SABINO","Fase":"En operacion","Voltaje_KV":400}},
{"type":"Feature","geometry":{"type":"Point","coordinates":[-93.13307110742117,16.760078875623552]},"properties":{"Name":"S.E. TUXTLA I","Fase":"En operacion","Voltaje_KV":115}},
{"type":"Feature","geometry":{"type":"Point","coordinates":[-93.09956108788731,16.769366922929613]},"properties":{"Name":"S.E. TUXTLA NORTE","Fase":"En operacion","Voltaje_KV":115}},
{"type":"Feature","geometry":{"type":"Point","coordinates":[-93.19834391590582,16.74262074369935]},"properties":{"Name":"S.E. TUXTLA SUR","Fase":"En operacion","Voltaje_KV":115}},
{"type":"Feature","geometry":{"type":"Point","coordinates":[-93.08432939383648,16.739901771049816]},"properties":{"Name":"S.E. TUXTLA GUTIERREZ II","Fase":"En operacion","Voltaje_KV":115}},
{"type":"Feature","geometry":{"type":"Point","coordinates":[-93.39453727889743,16.730657488882137]},"properties":{"Name":"S.E. OCOZOCOAUTLA","Fase":"En operacion","Voltaje_KV":115}},
{"type":"Feature","geometry":{"type":"Point","coordinates":[-93.6497093476711,16.68621455200002]},"properties":{"Name":"S.E. CINTALAPA","Fase":"En operacion","Voltaje_KV":115}},
{"type":"Feature","geometry":{"type":"Point","coordinates":[-93.91007126702061,16.245419080002083]},"properties":{"Name":"S.E. ARRIAGA","Fase":"En operacion","Voltaje_KV":115}},
{"type":"Feature","geometry":{"type":"Point","coordinates":[-93.26380026981847,16.2042130544736]},"properties":{"Name":"S.E. VILLA FLORES","Fase":"En operacion","Voltaje_KV":115}},
{"type":"Feature","geometry":{"type":"Point","coordinates":[-92.77692965849461,16.399570488938704]},"properties":{"Name":"S.E. ANGOSTURA","Fase":"En operacion","Voltaje_KV":400}},
{"type":"Feature","geometry":{"type":"Point","coordinates":[-92.65349741812999,16.72024430996353]},"properties":{"Name":"S.E. SAN CRISTOBAL","Fase":"En operacion","Voltaje_KV":115}},
{"type":"Feature","geometry":{"type":"Point","coordinates":[-92.88725971887511,15.456715568065386]},"properties":{"Name":"S.E. MAPASTEPEC","Fase":"En operacion","Voltaje_KV":115}},
{"type":"Feature","geometry":{"type":"Point","coordinates":[-92.34831508394481,14.867403865968896]},"properties":{"Name":"S.E. TAPACHULA POTENCIA","Fase":"En operacion","Voltaje_KV":400}},
{"type":"Feature","geometry":{"type":"Point","coordinates":[-92.45245207033207,14.874305505191941]},"properties":{"Name":"S.E. MAZATAN","Fase":"En operacion","Voltaje_KV":115}},
{"type":"Feature","geometry":{"type":"Point","coordinates":[-92.29073303083165,14.873691934693628]},"properties":{"Name":"S.E. TAPACHULA AEROPUERTO","Fase":"En operacion","Voltaje_KV":115}},
{"type":"Feature","geometry":{"type":"Point","coordinates":[-98.24883133137189,19.02170746321591]},"properties":{"Name":"SE ATLIXCAYOTL","Fase":"En operacion","Voltaje_KV":115}},
{"type":"Feature","geometry":{"type":"Point","coordinates":[-98.43060556139619,18.879961175183325]},"properties":{"Name":"SE ATLIXCO","Fase":"En operacion","Voltaje_KV":115}},
{"type":"Feature","geometry":{"type":"Point","coordinates":[-98.22491043432096,18.99858830656058]},"properties":{"Name":"SE BUGAMBILIAS","Fase":"En operacion","Voltaje_KV":115}},
{"type":"Feature","geometry":{"type":"Point","coordinates":[-98.53880525505744,19.58358755297845]},"properties":{"Name":"SE CALCULALPAN II","Fase":"En operacion","Voltaje_KV":115}},
{"type":"Feature","geometry":{"type":"Point","coordinates":[-98.55394741792283,19.57612268118368]},"properties":{"Name":"SE CEBADAS Y MALTAS","Fase":"En operacion","Voltaje_KV":115}},
{"type":"Feature","geometry":{"type":"Point","coordinates":[-97.95943234466401,18.964240973789504]},"properties":{"Name":"SE CEM TOLTECA","Fase":"En operacion","Voltaje_KV":230}},
{"type":"Feature","geometry":{"type":"Point","coordinates":[-98.15997700823151,19.065773402502263]},"properties":{"Name":"SE CHICLETS ADAMS","Fase":"En operacion","Voltaje_KV":115}},
{"type":"Feature","geometry":{"type":"Point","coordinates":[-98.42207646315374,19.20179038796925]},"properties":{"Name":"SE CRISOL","Fase":"En operacion","Voltaje_KV":115}},
{"type":"Feature","geometry":{"type":"Point","coordinates":[-97.96662342705429,19.333149465652582]},"properties":{"Name":"SE CUAUHTEMOC","Fase":"En operacion","Voltaje_KV":115}},
{"type":"Feature","geometry":{"type":"Point","coordinates":[-98.19334747739303,19.293165806475972]},"properties":{"Name":"SE GRESS","Fase":"En operacion","Voltaje_KV":115}},
{"type":"Feature","geometry":{"type":"Point","coordinates":[-97.93051896503896,19.326774556803713]},"properties":{"Name":"SE HUAMANTLA","Fase":"En operacion","Voltaje_KV":115}},
{"type":"Feature","geometry":{"type":"Point","coordinates":[-98.318844337148,19.17041940175771]},"properties":{"Name":"SE HYLSA","Fase":"En operacion","Voltaje_KV":230}},
{"type":"Feature","geometry":{"type":"Point","coordinates":[-98.16063313449484,19.064231929671735]},"properties":{"Name":"SE IDESA","Fase":"En operacion","Voltaje_KV":115}},
{"type":"Feature","geometry":{"type":"Point","coordinates":[-98.22142766673252,18.251983458900398]},"properties":{"Name":"SE LAS PALOMAS","Fase":"En operacion","Voltaje_KV":115}},
{"type":"Feature","geometry":{"type":"Point","coordinates":[-97.67640732036872,19.478423768414967]},"properties":{"Name":"SE LIBRES","Fase":"En operacion","Voltaje_KV":115}},
{"type":"Feature","geometry":{"type":"Point","coordinates":[-98.4536469369838,18.5861134923747]},"properties":{"Name":"SE MATAMOROS","Fase":"En operacion","Voltaje_KV":115}},
{"type":"Feature","geometry":{"type":"Point","coordinates":[-98.4903209886995,18.591858040849175]},"properties":{"Name":"SE MATAMOROS II","Fase":"En operacion","Voltaje_KV":115}},
{"type":"Feature","geometry":{"type":"Point","coordinates":[-97.4066559446454,20.015140713573764]},"properties":{"Name":"SE MAZATEPEC","Fase":"En operacion","Voltaje_KV":230}},
{"type":"Feature","geometry":{"type":"Point","coordinates":[-98.45663987847566,18.91672453063012]},"properties":{"Name":"SE METEPEC","Fase":"En operacion","Voltaje_KV":115}},
{"type":"Feature","geometry":{"type":"Point","coordinates":[-98.27565268715036,19.321646512813906]},"properties":{"Name":"SE PANOTLA","Fase":"En operacion","Voltaje_KV":115}},
{"type":"Feature","geometry":{"type":"Point","coordinates":[-98.22234928937185,19.163652442874096]},"properties":{"Name":"SE PAPALOTLA","Fase":"En operacion","Voltaje_KV":115}},
{"type":"Feature","geometry":{"type":"Point","coordinates":[-97.24818945449528,19.58211018716779]},"properties":{"Name":"SE PEROTE II","Fase":"En operacion","Voltaje_KV":115}},
{"type":"Feature","geometry":{"type":"Point","coordinates":[-98.06175140411732,19.390841341980522]},"properties":{"Name":"SE POLIDESA","Fase":"En operacion","Voltaje_KV":115}},
{"type":"Feature","geometry":{"type":"Point","coordinates":[-98.3959241783765,19.309348321594733]},"properties":{"Name":"SE POLIFIL","Fase":"En operacion","Voltaje_KV":115}},
{"type":"Feature","geometry":{"type":"Point","coordinates":[-98.26759481002766,19.06054022945184]},"properties":{"Name":"SE PONIENTE","Fase":"En operacion","Voltaje_KV":115}},
{"type":"Feature","geometry":{"type":"Point","coordinates":[-98.18978661900012,19.1986228648425]},"properties":{"Name":"SE PORCEL","Fase":"En operacion","Voltaje_KV":115}},
{"type":"Feature","geometry":{"type":"Point","coordinates":[-97.67780671321874,18.932214540653348]},"properties":{"Name":"SE QUECHOLAC","Fase":"En operacion","Voltaje_KV":115}},
{"type":"Feature","geometry":{"type":"Point","coordinates":[-98.41877919535365,19.264595067563885]},"properties":{"Name":"SE RASSINI FRENOS","Fase":"En operacion","Voltaje_KV":115}},
{"type":"Feature","geometry":{"type":"Point","coordinates":[-98.18214291697164,19.131595825867677]},"properties":{"Name":"SE RESURECCION","Fase":"En operacion","Voltaje_KV":115}},
{"type":"Feature","geometry":{"type":"Point","coordinates":[-98.24352788546558,19.125781242875043]},"properties":{"Name":"SE SAN LORENZO DIST","Fase":"En operacion","Voltaje_KV":115}},
{"type":"Feature","geometry":{"type":"Point","coordinates":[-98.41428352543653,19.216446681730133]},"properties":{"Name":"SE SAN MIGUEL","Fase":"En operacion","Voltaje_KV":115}},
{"type":"Feature","geometry":{"type":"Point","coordinates":[-98.13728668510794,19.383563682427422]},"properties":{"Name":"SE SANTA ANITA","Fase":"En operacion","Voltaje_KV":115}},
{"type":"Feature","geometry":{"type":"Point","coordinates":[-98.40547314891273,19.21651380436887]},"properties":{"Name":"SE SKYTEX","Fase":"En operacion","Voltaje_KV":115}},
{"type":"Feature","geometry":{"type":"Point","coordinates":[-98.39855902602294,19.29744260854844]},"properties":{"Name":"SE TARRANT","Fase":"En operacion","Voltaje_KV":115}},
{"type":"Feature","geometry":{"type":"Point","coordinates":[-97.71641617840373,18.874995257276996]},"properties":{"Name":"SE TECAMACHALCO","Fase":"En operacion","Voltaje_KV":115}},
{"type":"Feature","geometry":{"type":"Point","coordinates":[-97.7777302462561,18.88953359496468]},"properties":{"Name":"SE TECAMACHALCO II","Fase":"En operacion","Voltaje_KV":115}},
{"type":"Feature","geometry":{"type":"Point","coordinates":[-97.40456554965688,18.498882534885027]},"properties":{"Name":"SE TEHUACAN","Fase":"En operacion","Voltaje_KV":115}},
{"type":"Feature","geometry":{"type":"Point","coordinates":[-98.04798281956744,19.48630179851938]},"properties":{"Name":"SE TELMAG","Fase":"En operacion","Voltaje_KV":115}},
{"type":"Feature","geometry":{"type":"Point","coordinates":[-97.92540024770494,18.565456094648226]},"properties":{"Name":"SE TEPEXI DE RODRIGUEZ","Fase":"En operacion","Voltaje_KV":115}},
{"type":"Feature","geometry":{"type":"Point","coordinates":[-98.41660685613378,19.271874181208346]},"properties":{"Name":"SE TEXTILES KN","Fase":"En operacion","Voltaje_KV":115}},
{"type":"Feature","geometry":{"type":"Point","coordinates":[-98.24757058196906,19.122204412744637]},"properties":{"Name":"SE VOLKSWAGEN","Fase":"En operacion","Voltaje_KV":115}},
{"type":"Feature","geometry":{"type":"Point","coordinates":[-98.04837755687963,19.49964963881704]},"properties":{"Name":"SE XICOTENCATL","Fase":"En operacion","Voltaje_KV":115}},
{"type":"Feature","geometry":{"type":"Point","coordinates":[-97.24815544287397,18.35839895920976]},"properties":{"Name":"SE ZINACATEPEC","Fase":"En operacion","Voltaje_KV":115}},
{"type":"Feature","geometry":{"type":"Point","coordinates":[-98.04634740715677,19.498283537042536]},"properties":{"Name":"SE ZOCAC","Fase":"En operacion","Voltaje_KV":230}},
{"type":"Feature","geometry":{"type":"Point","coordinates":[-96.2414640704182,19.177064503246537]},"properties":{"Name":"SE TAMSA II","Fase":"En operacion","Voltaje_KV":230}},
{"type":"Feature","geometry":{"type":"Point","coordinates":[-97.62846929103678,16.07575404987681]},"properties":{"Name":"SE SANTA ROSA","Fase":"En operacion","Voltaje_KV":115}},
{"type":"Feature","geometry":{"type":"Point","coordinates":[-98.0574784389272,16.339042148283333]},"properties":{"Name":"SE PINOTEPA NACIONAL","Fase":"En operacion","Voltaje_KV":115}},
{"type":"Feature","geometry":{"type":"Point","coordinates":[-97.07045839637414,15.870784989228323]},"properties":{"Name":"SE PUERTO ESCONDIDO","Fase":"En operacion","Voltaje_KV":115}},
{"type":"Feature","geometry":{"type":"Point","coordinates":[-96.67145479016995,18.60071586390963]},"properties":{"Name":"SE COSOLAPA","Fase":"En operacion","Voltaje_KV":115}},
{"type":"Feature","geometry":{"type":"Point","coordinates":[-96.97844408425344,19.146301739296213]},"properties":{"Name":"SE HUATUSCO","Fase":"En operacion","Voltaje_KV":115}},
{"type":"Feature","geometry":{"type":"Point","coordinates":[-97.0669820785958,18.862780495137518]},"properties":{"Name":"SE KIMBERLY CLARK","Fase":"En operacion","Voltaje_KV":115}},
{"type":"Feature","geometry":{"type":"Point","coordinates":[-96.78547496636105,18.7435720095813]},"properties":{"Name":"SE OMEALCA","Fase":"En operacion","Voltaje_KV":115}},
{"type":"Feature","geometry":{"type":"Point","coordinates":[-96.31229463341742,17.76663630526841]},"properties":{"Name":"SE VALLE NACIONAL","Fase":"En operacion","Voltaje_KV":115}},
{"type":"Feature","geometry":{"type":"Point","coordinates":[-96.6146759442358,19.51075905425951]},"properties":{"Name":"SE ACTOPAN","Fase":"En operacion","Voltaje_KV":115}},
{"type":"Feature","geometry":{"type":"Point","coordinates":[-96.89641853569002,19.55688198797719]},"properties":{"Name":"SE EL CASTILLO","Fase":"En operacion","Voltaje_KV":115}},
{"type":"Feature","geometry":{"type":"Point","coordinates":[-96.40237854530267,18.814062224090883]},"properties":{"Name":"SE MATA PIONCHE","Fase":"En operacion","Voltaje_KV":115}},
{"type":"Feature","geometry":{"type":"Point","coordinates":[-96.18933229510837,19.17672248152036]},"properties":{"Name":"SE ALUMSA","Fase":"En operacion","Voltaje_KV":230}},
{"type":"Feature","geometry":{"type":"Point","coordinates":[-96.52078852212365,15.733373528890365]},"properties":{"Name":"SE POCHUTLA","Fase":"En operacion","Voltaje_KV":115}},
{"type":"Feature","geometry":{"type":"Point","coordinates":[-96.58207129518375,16.291486611980535]},"properties":{"Name":"SE MIAHUATLAN","Fase":"En operacion","Voltaje_KV":115}},
{"type":"Feature","geometry":{"type":"Point","coordinates":[-96.13939187255124,15.770602064033076]},"properties":{"Name":"SE HUATULCO","Fase":"En operacion","Voltaje_KV":115}},
{"type":"Feature","geometry":{"type":"Point","coordinates":[-96.08431239658402,15.775375593651386]},"properties":{"Name":"SE CONEJOS","Fase":"En operacion","Voltaje_KV":115}},
{"type":"Feature","geometry":{"type":"Point","coordinates":[-97.69358920900484,17.243636771988193]},"properties":{"Name":"SE TLAXIACO","Fase":"En operacion","Voltaje_KV":115}},
{"type":"Feature","geometry":{"type":"Point","coordinates":[-97.22651172137847,17.442186954550618]},"properties":{"Name":"SE NOCHIXTLAN","Fase":"En operacion","Voltaje_KV":115}},
{"type":"Feature","geometry":{"type":"Point","coordinates":[-98.2428968091166,19.11416418146258]},"properties":{"Name":"SE SAN LORENZO ALMECATLA","Fase":"En operacion","Voltaje_KV":115}},
{"type":"Feature","geometry":{"type":"Point","coordinates":[-98.23181948371682,19.064200813337308]},"properties":{"Name":"SE ANTUï¿½ANO","Fase":"En operacion","Voltaje_KV":115}},
{"type":"Feature","geometry":{"type":"Point","coordinates":[-98.20745448709808,19.059139820318773]},"properties":{"Name":"SE PUEBLA I","Fase":"En operacion","Voltaje_KV":115}},
{"type":"Feature","geometry":{"type":"Point","coordinates":[-98.19512959309374,19.0386799387504]},"properties":{"Name":"SE 5 DE MAYO (SF6)","Fase":"En operacion","Voltaje_KV":115}},
{"type":"Feature","geometry":{"type":"Point","coordinates":[-98.31254053132754,19.172533234469398]},"properties":{"Name":"SE CRYO INFRA","Fase":"En operacion","Voltaje_KV":115}},
{"type":"Feature","geometry":{"type":"Point","coordinates":[-98.21559014682639,17.676458497287825]},"properties":{"Name":"SE SAN LUIS MORELIA","Fase":"En operacion","Voltaje_KV":115}},
{"type":"Feature","geometry":{"type":"Point","coordinates":[-97.64379250350626,18.68319529725074]},"properties":{"Name":"SE TLACOTEPEC","Fase":"En operacion","Voltaje_KV":115}},
{"type":"Feature","geometry":{"type":"Point","coordinates":[-96.75851169709686,17.08736693913956]},"properties":{"Name":"SE OAXACA PONIENTE (MONTOYA)","Fase":"En operacion","Voltaje_KV":115}},
{"type":"Feature","geometry":{"type":"Point","coordinates":[-96.72504604152047,17.051762830388828]},"properties":{"Name":"SE OAXACA I","Fase":"En operacion","Voltaje_KV":115}},
{"type":"Feature","geometry":{"type":"Point","coordinates":[-96.19313335364535,19.183398275705574]},"properties":{"Name":"SE JARDIN (SF6)","Fase":"En operacion","Voltaje_KV":230}},
{"type":"Feature","geometry":{"type":"Point","coordinates":[-96.16281517268477,19.195613092572145]},"properties":{"Name":"SE INFONAVIT","Fase":"En operacion","Voltaje_KV":115}},
{"type":"Feature","geometry":{"type":"Point","coordinates":[-96.10968211247618,19.117811086107015]},"properties":{"Name":"SE BOCA DEL RIO","Fase":"En operacion","Voltaje_KV":115}},
{"type":"Feature","geometry":{"type":"Point","coordinates":[-96.11018298898239,19.14379400928984]},"properties":{"Name":"SE MOCAMBO","Fase":"En operacion","Voltaje_KV":115}},
{"type":"Feature","geometry":{"type":"Point","coordinates":[-97.08583949858993,18.834494687738655]},"properties":{"Name":"SE ORIZABA","Fase":"En operacion","Voltaje_KV":115}},
{"type":"Feature","geometry":{"type":"Point","coordinates":[-96.13661721828365,19.189426922809456]},"properties":{"Name":"SE PAGES","Fase":"En operacion","Voltaje_KV":115}},
{"type":"Feature","geometry":{"type":"Point","coordinates":[-96.12126719638403,19.01206995637974]},"properties":{"Name":"SE PASO DEL TORO","Fase":"En operacion","Voltaje_KV":115}},
{"type":"Feature","geometry":{"type":"Point","coordinates":[-96.40824843354368,18.231571272958774]},"properties":{"Name":"SE PH TEMASCAL I","Fase":"En operacion","Voltaje_KV":230}},
{"type":"Feature","geometry":{"type":"Point","coordinates":[-96.1428198785949,19.207942154611445]},"properties":{"Name":"SE PLAYA NORTE","Fase":"En operacion","Voltaje_KV":115}},
{"type":"Feature","geometry":{"type":"Point","coordinates":[-96.40363473538667,19.048499417507603]},"properties":{"Name":"SE SOLEDAD DOBLADO","Fase":"En operacion","Voltaje_KV":115}},
{"type":"Feature","geometry":{"type":"Point","coordinates":[-97.84352396513465,22.27155014318886]},"properties":{"Name":"SE POLVORIN","Fase":"En operacion","Voltaje_KV":115}},
{"type":"Feature","geometry":{"type":"Point","coordinates":[-96.14581403840563,19.08325978832365]},"properties":{"Name":"SE DOS BOCAS II","Fase":"En operacion","Voltaje_KV":115}},
{"type":"Feature","geometry":{"type":"Point","coordinates":[-98.99816869729699,18.847467501409028]},"properties":{"Name":"SE YAUTEPEC","Fase":"En operacion","Voltaje_KV":400}},
{"type":"Feature","geometry":{"type":"Point","coordinates":[-96.1778910741296,18.02860681128488]},"properties":{"Name":"SE FABRICA DE PAPEL","Fase":"En operacion","Voltaje_KV":115}},
{"type":"Feature","geometry":{"type":"Point","coordinates":[-96.15713583243348,18.257131640887202]},"properties":{"Name":"SE MEXPAPE","Fase":"En operacion","Voltaje_KV":115}},
{"type":"Feature","geometry":{"type":"Point","coordinates":[-97.33603421955466,21.014195704932458]},"properties":{"Name":"SE TUXPAN PV","Fase":"En operacion","Voltaje_KV":115}},
{"type":"Feature","geometry":{"type":"Point","coordinates":[-98.2323636621603,19.035476786594163]},"properties":{"Name":"SE EXCELOPOLIS","Fase":"En operacion","Voltaje_KV":115}},
{"type":"Feature","geometry":{"type":"Point","coordinates":[-98.89064724947815,19.242141436369803]},"properties":{"Name":"SE PAPELERA SAN RAFAEL","Fase":"En operacion","Voltaje_KV":115}},
{"type":"Feature","geometry":{"type":"Point","coordinates":[-96.94840512803782,17.740109283989064]},"properties":{"Name":"SE CUICATLAN","Fase":"En operacion","Voltaje_KV":115}},
{"type":"Feature","geometry":{"type":"Point","coordinates":[-96.80040062758974,17.223697263384615]},"properties":{"Name":"SE ETLA","Fase":"En operacion","Voltaje_KV":115}},
{"type":"Feature","geometry":{"type":"Point","coordinates":[-98.15210534158169,19.446723782319175]},"properties":{"Name":"SE APIZACO II","Fase":"En operacion","Voltaje_KV":115}},
{"type":"Feature","geometry":{"type":"Point","coordinates":[-98.08578871177843,19.394924915411732]},"properties":{"Name":"SE ATLAX","Fase":"En operacion","Voltaje_KV":115}},
{"type":"Feature","geometry":{"type":"Point","coordinates":[-98.05087260306908,19.48463590582004]},"properties":{"Name":"SE CLEMEX","Fase":"En operacion","Voltaje_KV":115}},
{"type":"Feature","geometry":{"type":"Point","coordinates":[-98.07411233754695,19.399247007566693]},"properties":{"Name":"SE FORJAMEX","Fase":"En operacion","Voltaje_KV":115}},
{"type":"Feature","geometry":{"type":"Point","coordinates":[-98.06432248170314,19.39161531020788]},"properties":{"Name":"SE GLICOMEX","Fase":"En operacion","Voltaje_KV":115}},
{"type":"Feature","geometry":{"type":"Point","coordinates":[-98.16053769378982,19.41109660180821]},"properties":{"Name":"SE LORETO Y PEï¿½A POBRE","Fase":"En operacion","Voltaje_KV":115}},
{"type":"Feature","geometry":{"type":"Point","coordinates":[-97.30739955082946,20.008795399816712]},"properties":{"Name":"SE MARGARITAS","Fase":"En operacion","Voltaje_KV":115}},
{"type":"Feature","geometry":{"type":"Point","coordinates":[-98.06571253686229,19.392014329231444]},"properties":{"Name":"SE ORGANICAS","Fase":"En operacion","Voltaje_KV":115}},
{"type":"Feature","geometry":{"type":"Point","coordinates":[-98.06087814011545,19.49979250904628]},"properties":{"Name":"SE VETROMEX","Fase":"En operacion","Voltaje_KV":115}},
{"type":"Feature","geometry":{"type":"Point","coordinates":[-97.95681067989125,22.457836758079054]},"properties":{"Name":"SE TEXTILERAS","Fase":"En operacion","Voltaje_KV":115}},
{"type":"Feature","geometry":{"type":"Point","coordinates":[-97.89647691610037,22.4924795280541]},"properties":{"Name":"SE LIQUID NATURAL GAS","Fase":"En operacion","Voltaje_KV":115}},
{"type":"Feature","geometry":{"type":"Point","coordinates":[-97.8860330186715,22.4128117800733]},"properties":{"Name":"SE GENERAL ELECTRIC","Fase":"En operacion","Voltaje_KV":115}},
{"type":"Feature","geometry":{"type":"Point","coordinates":[-97.88805123878524,22.40895032767471]},"properties":{"Name":"SE FINACRIL","Fase":"En operacion","Voltaje_KV":115}},
{"type":"Feature","geometry":{"type":"Point","coordinates":[-98.39362502461744,19.309062959414508]},"properties":{"Name":"SE LAMOSA","Fase":"En operacion","Voltaje_KV":115}},
{"type":"Feature","geometry":{"type":"Point","coordinates":[-97.89719451034061,22.449877004996086]},"properties":{"Name":"SE BIOFILM","Fase":"En operacion","Voltaje_KV":115}},
{"type":"Feature","geometry":{"type":"Point","coordinates":[-97.85996312917342,22.253964080311352]},"properties":{"Name":"SE UNIVERSIDAD","Fase":"En operacion","Voltaje_KV":115}},
{"type":"Feature","geometry":{"type":"Point","coordinates":[-97.85409072575291,22.218957354790607]},"properties":{"Name":"SE TAMAULIPAS","Fase":"En operacion","Voltaje_KV":115}},
{"type":"Feature","geometry":{"type":"Point","coordinates":[-98.30291988461362,22.71880154289375]},"properties":{"Name":"SE MANUEL","Fase":"En operacion","Voltaje_KV":115}},
{"type":"Feature","geometry":{"type":"Point","coordinates":[-97.89324258425782,22.409402082045805]},"properties":{"Name":"SE TEXTILERAS","Fase":"En operacion","Voltaje_KV":115}},
{"type":"Feature","geometry":{"type":"Point","coordinates":[-97.93299315013522,22.453663611839037]},"properties":{"Name":"SE PEMEX INYECCION","Fase":"En operacion","Voltaje_KV":115}},
{"type":"Feature","geometry":{"type":"Point","coordinates":[-98.42054212601964,21.117644270845112]},"properties":{"Name":"SE ATLAXPECO","Fase":"En operacion","Voltaje_KV":115}},
{"type":"Feature","geometry":{"type":"Point","coordinates":[-97.35262241227746,19.846181855662678]},"properties":{"Name":"SE TEZIUTLAN II","Fase":"En operacion","Voltaje_KV":115}},
{"type":"Feature","geometry":{"type":"Point","coordinates":[-96.16944191656897,18.03405565360483]},"properties":{"Name":"SE BENITO JUAREZ","Fase":"En operacion","Voltaje_KV":115}},
{"type":"Feature","geometry":{"type":"Point","coordinates":[-97.95860021574353,22.00803492522325]},"properties":{"Name":"SE CARBONO","Fase":"En operacion","Voltaje_KV":115}},
{"type":"Feature","geometry":{"type":"Point","coordinates":[-97.88076869111364,22.273459851773858]},"properties":{"Name":"SE INFONAVIT","Fase":"En operacion","Voltaje_KV":115}},
{"type":"Feature","geometry":{"type":"Point","coordinates":[-97.79845763272131,21.290721278220317]},"properties":{"Name":"SE TANCOCO","Fase":"En operacion","Voltaje_KV":115}},
{"type":"Feature","geometry":{"type":"Point","coordinates":[-97.88635560514604,22.288579399138882]},"properties":{"Name":"SE TANCOL","Fase":"En operacion","Voltaje_KV":115}},
{"type":"Feature","geometry":{"type":"Point","coordinates":[-97.04176880368156,19.071522709658936]},"properties":{"Name":"SE COSCOMATEPEC","Fase":"En operacion","Voltaje_KV":115}},
{"type":"Feature","geometry":{"type":"Point","coordinates":[-94.89690549999999,17.951399]},"properties":{"Name":"SE ACAYUCAN","Fase":"En operacion","Voltaje_KV":115}},
{"type":"Feature","geometry":{"type":"Point","coordinates":[-95.82929822877134,17.796138657751857]},"properties":{"Name":"SE PLAYA VICENTE","Fase":"En operacion","Voltaje_KV":115}},
{"type":"Feature","geometry":{"type":"Point","coordinates":[-95.88976262102564,18.082951225517768]},"properties":{"Name":"SE LOMA BONITA II","Fase":"En operacion","Voltaje_KV":115}},
{"type":"Feature","geometry":{"type":"Point","coordinates":[-94.32514591419977,18.007739668109473]},"properties":{"Name":"SE COATZACOALCOS II","Fase":"En operacion","Voltaje_KV":400}},
{"type":"Feature","geometry":{"type":"Point","coordinates":[-94.69106799772955,18.02837212258771]},"properties":{"Name":"SE CHINAMECA POTENCIA","Fase":"En operacion","Voltaje_KV":400}},
{"type":"Feature","geometry":{"type":"Point","coordinates":[-94.8231856016058,16.577992236517126]},"properties":{"Name":"SE LA VENTA II","Fase":"En operacion","Voltaje_KV":230}},
{"type":"Feature","geometry":{"type":"Point","coordinates":[-94.96613152379557,16.517657299363954]},"properties":{"Name":"SE JUCHITAN II","Fase":"En operacion","Voltaje_KV":230}},
{"type":"Feature","geometry":{"type":"Point","coordinates":[-95.0587719382784,17.761112906418358]},"properties":{"Name":"SE JUILE","Fase":"En operacion","Voltaje_KV":400}},
{"type":"Feature","geometry":{"type":"Point","coordinates":[-94.3790754299297,18.050190139119618]},"properties":{"Name":"SE NANCHITAL II","Fase":"En operacion","Voltaje_KV":115}},
{"type":"Feature","geometry":{"type":"Point","coordinates":[-94.39863598081259,18.029653786775846]},"properties":{"Name":"SE MINATITLAN II","Fase":"En operacion","Voltaje_KV":400}},
{"type":"Feature","geometry":{"type":"Point","coordinates":[-94.30528944756168,18.054465071676915]},"properties":{"Name":"SE TEAPA","Fase":"En operacion","Voltaje_KV":115}},
{"type":"Feature","geometry":{"type":"Point","coordinates":[-94.13831619617548,18.13122813449127]},"properties":{"Name":"SE AGUA DULCE II","Fase":"En operacion","Voltaje_KV":115}},
{"type":"Feature","geometry":{"type":"Point","coordinates":[-94.04516334996677,18.09397174742715]},"properties":{"Name":"SE VENTA II","Fase":"En operacion","Voltaje_KV":115}},
{"type":"Feature","geometry":{"type":"Point","coordinates":[-94.37070451826864,18.130898580788365]},"properties":{"Name":"SE IDESA","Fase":"En operacion","Voltaje_KV":115}},
{"type":"Feature","geometry":{"type":"Point","coordinates":[-94.36085944537697,18.096477516225455]},"properties":{"Name":"SE CANGREJERA","Fase":"En operacion","Voltaje_KV":115}},
{"type":"Feature","geometry":{"type":"Point","coordinates":[-94.37734733334263,18.13832283230351]},"properties":{"Name":"SE C.P. MORELOS","Fase":"En operacion","Voltaje_KV":115}},
{"type":"Feature","geometry":{"type":"Point","coordinates":[-94.40750620384947,18.11162667963074]},"properties":{"Name":"SE CRYO INFRA","Fase":"En operacion","Voltaje_KV":230}},
{"type":"Feature","geometry":{"type":"Point","coordinates":[-94.70535452291246,17.987194438476415]},"properties":{"Name":"SE ELMET","Fase":"En operacion","Voltaje_KV":115}},
{"type":"Feature","geometry":{"type":"Point","coordinates":[-94.39048138523225,18.106233605293546]},"properties":{"Name":"SE IQUISA","Fase":"En operacion","Voltaje_KV":115}},
{"type":"Feature","geometry":{"type":"Point","coordinates":[-94.57558699776845,17.99176884791402]},"properties":{"Name":"SE MINATITLAN I","Fase":"En operacion","Voltaje_KV":115}},
{"type":"Feature","geometry":{"type":"Point","coordinates":[-95.08171088953583,17.52441431927717]},"properties":{"Name":"SE NUEVO MORELOS","Fase":"En operacion","Voltaje_KV":115}},
{"type":"Feature","geometry":{"type":"Point","coordinates":[-94.41763069965148,18.139442306299017]},"properties":{"Name":"SE PUERTO FRANCO","Fase":"En operacion","Voltaje_KV":115}},
{"type":"Feature","geometry":{"type":"Point","coordinates":[-94.37964748595013,18.080863830863628]},"properties":{"Name":"SE RESISTOL","Fase":"En operacion","Voltaje_KV":115}},
{"type":"Feature","geometry":{"type":"Point","coordinates":[-94.47064263267566,18.140119862702022]},"properties":{"Name":"SE VISTAMAR","Fase":"En operacion","Voltaje_KV":115}},
{"type":"Feature","geometry":{"type":"Point","coordinates":[-94.66639214690277,17.589831822086357]},"properties":{"Name":"SE SANCHEZ TABOADA","Fase":"En operacion","Voltaje_KV":115}},
{"type":"Feature","geometry":{"type":"Point","coordinates":[-95.2426537197782,17.778497533017514]},"properties":{"Name":"SE EMILIANO ZAPATA","Fase":"En operacion","Voltaje_KV":115}},
{"type":"Feature","geometry":{"type":"Point","coordinates":[-94.58594683417378,18.018608619564528]},"properties":{"Name":"SE FENOQUIMIA","Fase":"En operacion","Voltaje_KV":115}},
{"type":"Feature","geometry":{"type":"Point","coordinates":[-94.72111270795214,18.11166611864169]},"properties":{"Name":"SE HUAZUNTLAN","Fase":"En operacion","Voltaje_KV":115}},
{"type":"Feature","geometry":{"type":"Point","coordinates":[-94.52156568472947,18.013993391559694]},"properties":{"Name":"SE LAS MATAS","Fase":"En operacion","Voltaje_KV":115}},
{"type":"Feature","geometry":{"type":"Point","coordinates":[-95.12115562505147,18.425186673809787]},"properties":{"Name":"SE CATEMACO","Fase":"En operacion","Voltaje_KV":115}},
{"type":"Feature","geometry":{"type":"Point","coordinates":[-95.1613988687632,18.1495693611182]},"properties":{"Name":"SE HUEYAPAN DE OCAMPO","Fase":"En operacion","Voltaje_KV":115}},
{"type":"Feature","geometry":{"type":"Point","coordinates":[-95.51528178329202,18.61110003217925]},"properties":{"Name":"SE LERDO","Fase":"En operacion","Voltaje_KV":115}},
{"type":"Feature","geometry":{"type":"Point","coordinates":[-95.03048819006491,16.873719852974066]},"properties":{"Name":"SE MATIAS ROMERO","Fase":"En operacion","Voltaje_KV":115}},
{"type":"Feature","geometry":{"type":"Point","coordinates":[-95.22995474832358,18.446932135477564]},"properties":{"Name":"SE SAN ANDRES II","Fase":"En operacion","Voltaje_KV":115}},
{"type":"Feature","geometry":{"type":"Point","coordinates":[-95.03366046470073,17.070739369111205]},"properties":{"Name":"SE SARABIA","Fase":"En operacion","Voltaje_KV":115}},
{"type":"Feature","geometry":{"type":"Point","coordinates":[-94.68922818812037,18.01391073458156]},"properties":{"Name":"SE CHINAMECA II","Fase":"En operacion","Voltaje_KV":115}},
{"type":"Feature","geometry":{"type":"Point","coordinates":[-94.39068238459079,18.107055455965984]},"properties":{"Name":"SE PAJARITOS II","Fase":"En operacion","Voltaje_KV":115}},
{"type":"Feature","geometry":{"type":"Point","coordinates":[-94.25403332534779,17.954340634184852]},"properties":{"Name":"SE BOMBEO UXPANAPA","Fase":"En operacion","Voltaje_KV":115}},
{"type":"Feature","geometry":{"type":"Point","coordinates":[-94.0967602715225,17.929059886208293]},"properties":{"Name":"SE LAS CHOAPAS II","Fase":"En operacion","Voltaje_KV":115}},
{"type":"Feature","geometry":{"type":"Point","coordinates":[-94.4523166068948,18.12281016396765]},"properties":{"Name":"SE LOPEZ MATEOS","Fase":"En operacion","Voltaje_KV":115}},
{"type":"Feature","geometry":{"type":"Point","coordinates":[-94.39204180391795,18.117302335681494]},"properties":{"Name":"SE AGROFOSFATADOS","Fase":"En operacion","Voltaje_KV":115}},
{"type":"Feature","geometry":{"type":"Point","coordinates":[-94.42163434781767,18.034094879671738]},"properties":{"Name":"SE TUZANDEPETL","Fase":"En operacion","Voltaje_KV":230}},
{"type":"Feature","geometry":{"type":"Point","coordinates":[-94.32676242853539,18.061629843597302]},"properties":{"Name":"SE UNION CARBIDE","Fase":"En operacion","Voltaje_KV":115}},
{"type":"Feature","geometry":{"type":"Point","coordinates":[-94.52809797531195,17.977501386180265]},"properties":{"Name":"SE REFINERIA MINATITLAN","Fase":"En operacion","Voltaje_KV":115}},
{"type":"Feature","geometry":{"type":"Point","coordinates":[-94.59771022825223,18.039020550729635]},"properties":{"Name":"SE EASTMAN CHEMICAL","Fase":"En operacion","Voltaje_KV":115}},
{"type":"Feature","geometry":{"type":"Point","coordinates":[-94.59766598771553,18.038847966398436]},"properties":{"Name":"SE TEREFTALATOS","Fase":"En operacion","Voltaje_KV":115}},
{"type":"Feature","geometry":{"type":"Point","coordinates":[-89.84935895471948,21.02563366880615]},"properties":{"Name":"S.E. HUNUCMA","Fase":"En operacion","Voltaje_KV":115}},
{"type":"Feature","geometry":{"type":"Point","coordinates":[-89.28446240165705,21.074644014318345]},"properties":{"Name":"S.E. KOPTE","Fase":"En operacion","Voltaje_KV":115}},
{"type":"Feature","geometry":{"type":"Point","coordinates":[-87.50356882477938,20.986575633567554]},"properties":{"Name":"S.E. POPOLNAH","Fase":"En operacion","Voltaje_KV":115}},
{"type":"Feature","geometry":{"type":"Point","coordinates":[-87.1418819592162,20.583336216476336]},"properties":{"Name":"S.E. CALICA","Fase":"En operacion","Voltaje_KV":115}},
{"type":"Feature","geometry":{"type":"Point","coordinates":[-87.09361472343338,20.61775825988198]},"properties":{"Name":"S.E. PLAYACAR","Fase":"En operacion","Voltaje_KV":115}},
{"type":"Feature","geometry":{"type":"Point","coordinates":[-87.21657005011751,20.512457207525486]},"properties":{"Name":"S.E. AVENTURA PALACE","Fase":"En operacion","Voltaje_KV":115}},
{"type":"Feature","geometry":{"type":"Point","coordinates":[-86.97203405201962,20.768655182041144]},"properties":{"Name":"S.E. IBEROSTAR","Fase":"En operacion","Voltaje_KV":115}},
{"type":"Feature","geometry":{"type":"Point","coordinates":[-86.8437207174445,20.98457394994756]},"properties":{"Name":"S.E. MOON PALACE","Fase":"En operacion","Voltaje_KV":115}},
{"type":"Feature","geometry":{"type":"Point","coordinates":[-88.20301335023585,20.707042045055612]},"properties":{"Name":"S.E. VALLADOLID DISTRIBUCION","Fase":"En operacion","Voltaje_KV":115}},
{"type":"Feature","geometry":{"type":"Point","coordinates":[-89.46929107303085,20.82721839230181]},"properties":{"Name":"S.E. LEE","Fase":"En operacion","Voltaje_KV":115}},
{"type":"Feature","geometry":{"type":"Point","coordinates":[-88.93929331737849,21.140041136199716]},"properties":{"Name":"S.E. TEMAX","Fase":"En operacion","Voltaje_KV":115}},
{"type":"Feature","geometry":{"type":"Point","coordinates":[-88.673915,21.188771]},"properties":{"Name":"S.E.  SANTO DOMINGO","Fase":"En operacion","Voltaje_KV":115}},
{"type":"Feature","geometry":{"type":"Point","coordinates":[-86.82749190154968,21.195570032924483]},"properties":{"Name":"S.E. PUNTA SAM","Fase":"En operacion","Voltaje_KV":115}},
{"type":"Feature","geometry":{"type":"Point","coordinates":[-86.7465315860243,21.136260031416548]},"properties":{"Name":"S.E. POKTAPOK","Fase":"En operacion","Voltaje_KV":115}},
{"type":"Feature","geometry":{"type":"Point","coordinates":[-87.03299550566591,20.696202141282445]},"properties":{"Name":"S.E. MAYA COBA","Fase":"En operacion","Voltaje_KV":115}},
{"type":"Feature","geometry":{"type":"Point","coordinates":[-102.48696078561464,23.051874808356978]},"properties":{"Name":"S.E. LAGUNA SECA","Fase":"En operacion","Voltaje_KV":115}},
{"type":"Feature","geometry":{"type":"Point","coordinates":[-102.41859308229633,22.918913684557378]},"properties":{"Name":"S.E. LAMPOTAL","Fase":"En operacion","Voltaje_KV":115}},
{"type":"Feature","geometry":{"type":"Point","coordinates":[-102.69472570396077,22.979479185101294]},"properties":{"Name":"S.E. CALERA II","Fase":"En operacion","Voltaje_KV":230}},
{"type":"Feature","geometry":{"type":"Point","coordinates":[-102.85091062929249,23.158633711178837]},"properties":{"Name":"S.E. FRESNILLO SUR","Fase":"En operacion","Voltaje_KV":400}},
{"type":"Feature","geometry":{"type":"Point","coordinates":[-102.98091514869537,22.649157136717825]},"properties":{"Name":"S.E. JEREZ MVAR","Fase":"En operacion","Voltaje_KV":115}},
{"type":"Feature","geometry":{"type":"Point","coordinates":[-102.00149450110266,22.221991934833948]},"properties":{"Name":"S.E. LORETO","Fase":"En operacion","Voltaje_KV":115}},
{"type":"Feature","geometry":{"type":"Point","coordinates":[-102.90704611838837,23.22488340240135]},"properties":{"Name":"S.E. FRESNILLO NORTE","Fase":"En operacion","Voltaje_KV":115}},
{"type":"Feature","geometry":{"type":"Point","coordinates":[-102.88794703990932,23.446262843403144]},"properties":{"Name":"S.E. RANCHO GRANDE","Fase":"En operacion","Voltaje_KV":115}},
{"type":"Feature","geometry":{"type":"Point","coordinates":[-103.2798540765391,24.091441846836467]},"properties":{"Name":"S.E. LAS FAJAS","Fase":"En operacion","Voltaje_KV":115}},
{"type":"Feature","geometry":{"type":"Point","coordinates":[-103.40406108627151,24.280093336555016]},"properties":{"Name":"S.E. MIGUEL AUZA","Fase":"En operacion","Voltaje_KV":115}},
{"type":"Feature","geometry":{"type":"Point","coordinates":[-102.38211160850365,23.198609770119877]},"properties":{"Name":"S.E. BAï¿½ON","Fase":"En operacion","Voltaje_KV":115}},
{"type":"Feature","geometry":{"type":"Point","coordinates":[-102.67407309378055,22.92251354306735]},"properties":{"Name":"S.E. CALERA INDUSTRIAL","Fase":"En operacion","Voltaje_KV":115}},
{"type":"Feature","geometry":{"type":"Point","coordinates":[-102.68730403739077,22.720080594606518]},"properties":{"Name":"S.E. CIENEGUILLAS","Fase":"En operacion","Voltaje_KV":115}},
{"type":"Feature","geometry":{"type":"Point","coordinates":[-102.7580271606219,22.612138966924878]},"properties":{"Name":"S.E. MALPASO","Fase":"En operacion","Voltaje_KV":115}},
{"type":"Feature","geometry":{"type":"Point","coordinates":[-102.48439380284509,22.749942025293784]},"properties":{"Name":"S.E. GUADALUPE","Fase":"En operacion","Voltaje_KV":115}},
{"type":"Feature","geometry":{"type":"Point","coordinates":[-102.06368193577468,21.69713591343795]},"properties":{"Name":"S.E. TECUAN","Fase":"En operacion","Voltaje_KV":115}},
{"type":"Feature","geometry":{"type":"Point","coordinates":[-102.28071371433056,21.83698340087714]},"properties":{"Name":"S.E. AGUASCALIENTES SUR","Fase":"En operacion","Voltaje_KV":115}},
{"type":"Feature","geometry":{"type":"Point","coordinates":[-102.25644035807137,21.8743492673554]},"properties":{"Name":"S.E. TECNOLOGICO","Fase":"En operacion","Voltaje_KV":115}},
{"type":"Feature","geometry":{"type":"Point","coordinates":[-102.28208596151336,21.950641540117413]},"properties":{"Name":"S.E. MARGARITAS","Fase":"En operacion","Voltaje_KV":230}},
{"type":"Feature","geometry":{"type":"Point","coordinates":[-102.2412492515251,22.226818765638892]},"properties":{"Name":"S.E. SAN ANTONIO","Fase":"En operacion","Voltaje_KV":115}},
{"type":"Feature","geometry":{"type":"Point","coordinates":[-102.28811305385075,22.13704520210337]},"properties":{"Name":"S.E. PABELLON","Fase":"En operacion","Voltaje_KV":115}},
{"type":"Feature","geometry":{"type":"Point","coordinates":[-102.2349620349854,22.315557074356825]},"properties":{"Name":"S.E. VALLE DE LAS DELICIAS","Fase":"En operacion","Voltaje_KV":115}},
{"type":"Feature","geometry":{"type":"Point","coordinates":[-102.26605919781151,22.03836663983227]},"properties":{"Name":"S.E. SAN FRANCISCO INDUSTRIAL","Fase":"En operacion","Voltaje_KV":115}},
{"type":"Feature","geometry":{"type":"Point","coordinates":[-102.25979396074095,21.897565583111582]},"properties":{"Name":"S.E. CUMBRES","Fase":"En operacion","Voltaje_KV":115}},
{"type":"Feature","geometry":{"type":"Point","coordinates":[-102.34534355728432,21.87631015516558]},"properties":{"Name":"S.E. AGUASCALIENTES PONIENTE","Fase":"En operacion","Voltaje_KV":115}},
{"type":"Feature","geometry":{"type":"Point","coordinates":[-102.32045366944244,21.84715712734102]},"properties":{"Name":"S.E. AGOSTADERITO","Fase":"En operacion","Voltaje_KV":115}},
{"type":"Feature","geometry":{"type":"Point","coordinates":[-102.78953090867721,21.79540929868637]},"properties":{"Name":"S.E. SALITRE","Fase":"En operacion","Voltaje_KV":115}},
{"type":"Feature","geometry":{"type":"Point","coordinates":[-102.69618795519501,21.853331104187596]},"properties":{"Name":"S.E. CALVILLO","Fase":"En operacion","Voltaje_KV":115}},
{"type":"Feature","geometry":{"type":"Point","coordinates":[-102.9728367646935,21.650261017639718]},"properties":{"Name":"S.E. JALPA","Fase":"En operacion","Voltaje_KV":115}},
{"type":"Feature","geometry":{"type":"Point","coordinates":[-102.50908147653581,21.726871576355904]},"properties":{"Name":"S.E. TARAY","Fase":"En operacion","Voltaje_KV":115}},
{"type":"Feature","geometry":{"type":"Point","coordinates":[-102.38283668068884,21.91057767217116]},"properties":{"Name":"S.E. AGUASCALIENTES I","Fase":"En operacion","Voltaje_KV":115}},
{"type":"Feature","geometry":{"type":"Point","coordinates":[-102.32050726940831,21.916133083927825]},"properties":{"Name":"S.E. AGUASCALIENTES NORTE","Fase":"En operacion","Voltaje_KV":230}},
{"type":"Feature","geometry":{"type":"Point","coordinates":[-102.08825848806315,22.070587207352663]},"properties":{"Name":"S.E. VIILA JUAREZ","Fase":"En operacion","Voltaje_KV":115}},
{"type":"Feature","geometry":{"type":"Point","coordinates":[-102.44751777704103,22.75017523290852]},"properties":{"Name":"S.E. ZACATECAS II","Fase":"En operacion","Voltaje_KV":230}},
{"type":"Feature","geometry":{"type":"Point","coordinates":[-102.91742408087075,23.232793305425922]},"properties":{"Name":"S.E. FRESNILLO POTENCIA","Fase":"En operacion","Voltaje_KV":230}},
{"type":"Feature","geometry":{"type":"Point","coordinates":[-103.11061854563789,23.161922662529275]},"properties":{"Name":"S.E. SAN JERONIMO","Fase":"En operacion","Voltaje_KV":115}},
{"type":"Feature","geometry":{"type":"Point","coordinates":[-103.51601381577535,22.794427505488994]},"properties":{"Name":"S.E. VALPARAISO","Fase":"En operacion","Voltaje_KV":115}},
{"type":"Feature","geometry":{"type":"Point","coordinates":[-102.24398297983511,22.57950854867231]},"properties":{"Name":"S.E. OJO CALIENTE","Fase":"En operacion","Voltaje_KV":115}},
{"type":"Feature","geometry":{"type":"Point","coordinates":[-102.09082700395724,22.678852401714092]},"properties":{"Name":"S.E. PANFILO NATERA","Fase":"En operacion","Voltaje_KV":115}},
{"type":"Feature","geometry":{"type":"Point","coordinates":[-102.01623815072232,22.499212420736246]},"properties":{"Name":"S.E. ESTANCIA DE ANIMAS","Fase":"En operacion","Voltaje_KV":115}},
{"type":"Feature","geometry":{"type":"Point","coordinates":[-102.2203107595628,21.762804055702233]},"properties":{"Name":"S.E. AGUASCALIENTES POTENCIA","Fase":"En operacion","Voltaje_KV":400}},
{"type":"Feature","geometry":{"type":"Point","coordinates":[-102.24370903507108,21.99301192242129]},"properties":{"Name":"S.E. CAï¿½ADA AMPLIACIï¿½N","Fase":"En operacion","Voltaje_KV":400}},
{"type":"Feature","geometry":{"type":"Point","coordinates":[-104.51015855781424,24.016567604727292]},"properties":{"Name":"S.E. DURANGO SUR MVAR","Fase":"En operacion","Voltaje_KV":230}},
{"type":"Feature","geometry":{"type":"Point","coordinates":[-104.7325160963772,24.51439757977342]},"properties":{"Name":"S.E. CANATLAN AMPL","Fase":"En operacion","Voltaje_KV":115}},
{"type":"Feature","geometry":{"type":"Point","coordinates":[-104.60564181180128,24.076415592488303]},"properties":{"Name":"S.E. DURANGO II","Fase":"En operacion","Voltaje_KV":230}},
{"type":"Feature","geometry":{"type":"Point","coordinates":[-102.05006349193977,23.04272644140965]},"properties":{"Name":"S.E. LOS HERNï¿½NDEZ","Fase":"En operacion","Voltaje_KV":115}},
{"type":"Feature","geometry":{"type":"Point","coordinates":[-102.69334621454858,23.143463833042414]},"properties":{"Name":"S.E. EL PARDILLO","Fase":"En operacion","Voltaje_KV":115}},
{"type":"Feature","geometry":{"type":"Point","coordinates":[-102.24289225496399,22.406542144813738]},"properties":{"Name":"S.E. LUIS MOYA","Fase":"En operacion","Voltaje_KV":115}},
{"type":"Feature","geometry":{"type":"Point","coordinates":[-102.27304926717719,21.906922817737115]},"properties":{"Name":"S.E. AGUASCALIENTES OTE","Fase":"En operacion","Voltaje_KV":230}},
{"type":"Feature","geometry":{"type":"Point","coordinates":[-102.20870689176596,22.184626216015552]},"properties":{"Name":"S.E. CRUZ AZUL","Fase":"En operacion","Voltaje_KV":230}},
{"type":"Feature","geometry":{"type":"Point","coordinates":[-103.04270988915721,23.819214149938865]},"properties":{"Name":"S.E. RIO GRANDE II","Fase":"En operacion","Voltaje_KV":115}},
{"type":"Feature","geometry":{"type":"Point","coordinates":[-102.28767889535128,22.01230928397854]},"properties":{"Name":"S.E. GOMEZ PORTUGAL","Fase":"En operacion","Voltaje_KV":115}},
{"type":"Feature","geometry":{"type":"Point","coordinates":[-102.28044963532183,22.036166173950367]},"properties":{"Name":"S.E. SAN FRANCISCO DE LOS ROMOS","Fase":"En operacion","Voltaje_KV":115}},
{"type":"Feature","geometry":{"type":"Point","coordinates":[-103.30790267012505,21.7740764269668]},"properties":{"Name":"S.E. TLALTENANGO","Fase":"En operacion","Voltaje_KV":115}},
{"type":"Feature","geometry":{"type":"Point","coordinates":[-103.34586777573769,20.657646132488512]},"properties":{"Name":"S.E. AGUAZUL","Fase":"En operacion","Voltaje_KV":230}},
{"type":"Feature","geometry":{"type":"Point","coordinates":[-103.31706461694606,20.634213738354884]},"properties":{"Name":"S.E. ALAMOS","Fase":"En operacion","Voltaje_KV":230}},
{"type":"Feature","geometry":{"type":"Point","coordinates":[-103.20060550802508,20.313038643624793]},"properties":{"Name":"S.E. CHAPALA","Fase":"En operacion","Voltaje_KV":115}},
{"type":"Feature","geometry":{"type":"Point","coordinates":[-103.37370114477119,20.665532613631676]},"properties":{"Name":"S.E. NIï¿½OS Hï¿½ROES","Fase":"En operacion","Voltaje_KV":230}},
{"type":"Feature","geometry":{"type":"Point","coordinates":[-103.37278817020893,20.65288684529766]},"properties":{"Name":"S.E. FRESNO","Fase":"En operacion","Voltaje_KV":115}},
{"type":"Feature","geometry":{"type":"Point","coordinates":[-103.42079531409746,20.602893493645336]},"properties":{"Name":"S.E. GUADALAJARA I","Fase":"En operacion","Voltaje_KV":230}},
{"type":"Feature","geometry":{"type":"Point","coordinates":[-103.35027565515477,20.77735196435628]},"properties":{"Name":"S.E. GUADALAJARA NORTE","Fase":"En operacion","Voltaje_KV":230}},
{"type":"Feature","geometry":{"type":"Point","coordinates":[-103.44744685894769,20.277776263038184]},"properties":{"Name":"S.E. JOCOTEPEC","Fase":"En operacion","Voltaje_KV":115}},
{"type":"Feature","geometry":{"type":"Point","coordinates":[-103.45446391868379,20.71897932561978]},"properties":{"Name":"S.E. MOJONERA","Fase":"En operacion","Voltaje_KV":115}},
{"type":"Feature","geometry":{"type":"Point","coordinates":[-103.31229771291514,20.56991373200747]},"properties":{"Name":"S.E. PARQUE INDUSTRIAL","Fase":"En operacion","Voltaje_KV":115}},
{"type":"Feature","geometry":{"type":"Point","coordinates":[-103.49759500215424,20.725989367961635]},"properties":{"Name":"S.E. EL PINAR","Fase":"En operacion","Voltaje_KV":115}},
{"type":"Feature","geometry":{"type":"Point","coordinates":[-103.71217392490144,20.670320179326293]},"properties":{"Name":"S.E. TALA","Fase":"En operacion","Voltaje_KV":115}},
{"type":"Feature","geometry":{"type":"Point","coordinates":[-103.50308415509568,20.78894585029529]},"properties":{"Name":"S.E. TESISTï¿½N","Fase":"En operacion","Voltaje_KV":400}},
{"type":"Feature","geometry":{"type":"Point","coordinates":[-103.45924217676496,20.77576924723092]},"properties":{"Name":"S.E. TUZANIA","Fase":"En operacion","Voltaje_KV":115}},
{"type":"Feature","geometry":{"type":"Point","coordinates":[-103.5694039158286,20.729014384992336]},"properties":{"Name":"S.E. LA VENTA","Fase":"En operacion","Voltaje_KV":115}},
{"type":"Feature","geometry":{"type":"Point","coordinates":[-103.48640117255697,19.664890186601987]},"properties":{"Name":"S.E. CIUDAD GUZMï¿½N","Fase":"En operacion","Voltaje_KV":230}},
{"type":"Feature","geometry":{"type":"Point","coordinates":[-103.5366068827057,19.2445957283359]},"properties":{"Name":"S.E. ALZADA","Fase":"En operacion","Voltaje_KV":115}},
{"type":"Feature","geometry":{"type":"Point","coordinates":[-103.45019789697412,19.212628402007972]},"properties":{"Name":"S.E. ESTRELLA","Fase":"En operacion","Voltaje_KV":115}},
{"type":"Feature","geometry":{"type":"Point","coordinates":[-103.32532386723067,20.78529145423342]},"properties":{"Name":"S.E. AGUAPRIETA I","Fase":"En operacion","Voltaje_KV":230}},
{"type":"Feature","geometry":{"type":"Point","coordinates":[-103.3354869074198,20.773136051299826]},"properties":{"Name":"S.E. AGUAPRIETA II","Fase":"En operacion","Voltaje_KV":230}},
{"type":"Feature","geometry":{"type":"Point","coordinates":[-103.46462816942947,20.559132215158897]},"properties":{"Name":"S.E. SAN AGUSTï¿½N","Fase":"En operacion","Voltaje_KV":115}},
{"type":"Feature","geometry":{"type":"Point","coordinates":[-103.23430522465394,20.47663016206558]},"properties":{"Name":"S.E. ATEQUIZA","Fase":"En operacion","Voltaje_KV":400}},
{"type":"Feature","geometry":{"type":"Point","coordinates":[-103.44234503018586,20.575691660573252]},"properties":{"Name":"S.E. BUGAMBILIAS","Fase":"En operacion","Voltaje_KV":115}},
{"type":"Feature","geometry":{"type":"Point","coordinates":[-103.24682454306908,20.4954633000694]},"properties":{"Name":"S.E. CASTILLO","Fase":"En operacion","Voltaje_KV":115}},
{"type":"Feature","geometry":{"type":"Point","coordinates":[-103.3369922894943,20.58142421094633]},"properties":{"Name":"S.E. SIAPA","Fase":"En operacion","Voltaje_KV":115}},
{"type":"Feature","geometry":{"type":"Point","coordinates":[-103.25285303173294,20.530018548534564]},"properties":{"Name":"S.E. EL SALTO","Fase":"En operacion","Voltaje_KV":115}},
{"type":"Feature","geometry":{"type":"Point","coordinates":[-103.48238052317647,20.49126008429334]},"properties":{"Name":"S.E. SANTA CRUZ","Fase":"En operacion","Voltaje_KV":115}},
{"type":"Feature","geometry":{"type":"Point","coordinates":[-103.26363915011612,20.656851477143217]},"properties":{"Name":"S.E. ZALATITï¿½N","Fase":"En operacion","Voltaje_KV":115}},
{"type":"Feature","geometry":{"type":"Point","coordinates":[-103.41149450544908,20.72395385794814]},"properties":{"Name":"S.E. ACUEDUCTO","Fase":"En operacion","Voltaje_KV":115}},
{"type":"Feature","geometry":{"type":"Point","coordinates":[-103.33487133157325,20.711440641792883]},"properties":{"Name":"S.E. EXPERIENCIA","Fase":"En operacion","Voltaje_KV":115}},
{"type":"Feature","geometry":{"type":"Point","coordinates":[-103.29238508038534,20.726027217711795]},"properties":{"Name":"S.E. NUEVA HUENTITAN","Fase":"En operacion","Voltaje_KV":115}},
{"type":"Feature","geometry":{"type":"Point","coordinates":[-103.42973623144611,20.641254643625867]},"properties":{"Name":"S.E. EL SOL","Fase":"En operacion","Voltaje_KV":115}},
{"type":"Feature","geometry":{"type":"Point","coordinates":[-103.29189601843383,20.725929217405206]},"properties":{"Name":"S.E. VIEJA HUETITAN","Fase":"En operacion","Voltaje_KV":115}},
{"type":"Feature","geometry":{"type":"Point","coordinates":[-103.41462633772063,20.679448839481857]},"properties":{"Name":"S.E. Tï¿½RMICA ZAPOPAN","Fase":"En operacion","Voltaje_KV":115}},
{"type":"Feature","geometry":{"type":"Point","coordinates":[-103.37870482460566,20.724967478877353]},"properties":{"Name":"S.E. ZOQUIPAN","Fase":"En operacion","Voltaje_KV":115}},
{"type":"Feature","geometry":{"type":"Point","coordinates":[-103.56147039934959,20.4167801239329]},"properties":{"Name":"S.E. ACATLï¿½N","Fase":"En operacion","Voltaje_KV":400}},
{"type":"Feature","geometry":{"type":"Point","coordinates":[-103.59467674382941,20.309319144014033]},"properties":{"Name":"S.E. CATARINA","Fase":"En operacion","Voltaje_KV":115}},
{"type":"Feature","geometry":{"type":"Point","coordinates":[-103.85159845377726,20.382326148708362]},"properties":{"Name":"S.E. COCULA","Fase":"En operacion","Voltaje_KV":115}},
{"type":"Feature","geometry":{"type":"Point","coordinates":[-103.3955795861734,20.62890956490597]},"properties":{"Name":"S.E. COLï¿½N","Fase":"En operacion","Voltaje_KV":230}},
{"type":"Feature","geometry":{"type":"Point","coordinates":[-103.28690356999697,20.560620876862]},"properties":{"Name":"S.E. GUADALAJARA II","Fase":"En operacion","Voltaje_KV":230}},
{"type":"Feature","geometry":{"type":"Point","coordinates":[-103.2352871140122,20.64537823834401]},"properties":{"Name":"S.E. GUADALAJARA OTE","Fase":"En operacion","Voltaje_KV":230}},
{"type":"Feature","geometry":{"type":"Point","coordinates":[-103.3114960031578,20.671292027347945]},"properties":{"Name":"S.E. PENAL","Fase":"En operacion","Voltaje_KV":115}},
{"type":"Feature","geometry":{"type":"Point","coordinates":[-103.23646621919652,20.64488593589813]},"properties":{"Name":"S.E. SAN GASPAR","Fase":"En operacion","Voltaje_KV":115}},
{"type":"Feature","geometry":{"type":"Point","coordinates":[-103.16549507853715,20.688085218121902]},"properties":{"Name":"S.E. ZAPOTLANEJO POT.","Fase":"En operacion","Voltaje_KV":400}},
{"type":"Feature","geometry":{"type":"Point","coordinates":[-103.83288374190398,19.006270107847488]},"properties":{"Name":"S.E. TECOLAPA","Fase":"En operacion","Voltaje_KV":115}},
{"type":"Feature","geometry":{"type":"Point","coordinates":[-103.77729639061646,19.106958634493473]},"properties":{"Name":"S.E. LOS ASMOLES","Fase":"En operacion","Voltaje_KV":115}},
{"type":"Feature","geometry":{"type":"Point","coordinates":[-104.09552007632337,19.364079715081235]},"properties":{"Name":"S.E. MINATITLï¿½N","Fase":"En operacion","Voltaje_KV":115}},
{"type":"Feature","geometry":{"type":"Point","coordinates":[-104.23241857843102,19.053504513221814]},"properties":{"Name":"S.E. TAPEIXTLES POT.","Fase":"En operacion","Voltaje_KV":400}},
{"type":"Feature","geometry":{"type":"Point","coordinates":[-104.38648657474397,19.12501932649801]},"properties":{"Name":"S.E. MIRAMAR","Fase":"En operacion","Voltaje_KV":115}},
{"type":"Feature","geometry":{"type":"Point","coordinates":[-103.90074439185015,18.943561977625492]},"properties":{"Name":"S.E. TECOMï¿½N","Fase":"En operacion","Voltaje_KV":115}},
{"type":"Feature","geometry":{"type":"Point","coordinates":[-103.99821810332521,18.933845087151237]},"properties":{"Name":"S.E. ARMERï¿½A","Fase":"En operacion","Voltaje_KV":115}},
{"type":"Feature","geometry":{"type":"Point","coordinates":[-104.27580135570618,19.05108560403568]},"properties":{"Name":"S.E. COLOMO","Fase":"En operacion","Voltaje_KV":230}},
{"type":"Feature","geometry":{"type":"Point","coordinates":[-104.27455261826323,19.050185152208908]},"properties":{"Name":"S.E. COLOMO DIST.","Fase":"En operacion","Voltaje_KV":115}},
{"type":"Feature","geometry":{"type":"Point","coordinates":[-105.08528899500155,19.570449349578258]},"properties":{"Name":"S.E. CHAMELA","Fase":"En operacion","Voltaje_KV":115}},
{"type":"Feature","geometry":{"type":"Point","coordinates":[-104.62809600000001,19.488694000000006]},"properties":{"Name":"S.E. LA HUERTA","Fase":"En operacion","Voltaje_KV":115}},
{"type":"Feature","geometry":{"type":"Point","coordinates":[-104.71349008485485,19.260680172976567]},"properties":{"Name":"S.E. MELAQUE DIST.","Fase":"En operacion","Voltaje_KV":115}},
{"type":"Feature","geometry":{"type":"Point","coordinates":[-104.35959747679405,19.74279990681641]},"properties":{"Name":"S.E. AUTLï¿½N","Fase":"En operacion","Voltaje_KV":115}},
{"type":"Feature","geometry":{"type":"Point","coordinates":[-92.32932955594173,14.9074286073469]},"properties":{"Name":"S.E. BELISARIO DOMINGUEZ","Fase":"En operacion","Voltaje_KV":115}},
{"type":"Feature","geometry":{"type":"Point","coordinates":[-92.39806082216685,14.733577508428061]},"properties":{"Name":"S.E. PUERTO MADERO","Fase":"En operacion","Voltaje_KV":115}},
{"type":"Feature","geometry":{"type":"Point","coordinates":[-92.19032423059845,14.630825520121505]},"properties":{"Name":"S.E. CD. HIDALGO","Fase":"En operacion","Voltaje_KV":115}},
{"type":"Feature","geometry":{"type":"Point","coordinates":[-93.17753391858716,15.671647947330557]},"properties":{"Name":"S.E. PIJIJIAPAN","Fase":"En operacion","Voltaje_KV":115}},
{"type":"Feature","geometry":{"type":"Point","coordinates":[-93.01958569009093,16.680973143331183]},"properties":{"Name":"S.E. GRIJALVA","Fase":"En operacion","Voltaje_KV":115}},
{"type":"Feature","geometry":{"type":"Point","coordinates":[-90.95577195315451,18.74818992595391]},"properties":{"Name":"S.E. CHICBUL","Fase":"En operacion","Voltaje_KV":115}},
{"type":"Feature","geometry":{"type":"Point","coordinates":[-92.5683141319939,16.316847197212862]},"properties":{"Name":"S.E. FLORES MAGON","Fase":"En operacion","Voltaje_KV":115}},
{"type":"Feature","geometry":{"type":"Point","coordinates":[-92.4279339605171,16.314118844520852]},"properties":{"Name":"S.E. SCHPOINA","Fase":"En operacion","Voltaje_KV":115}},
{"type":"Feature","geometry":{"type":"Point","coordinates":[-92.13191918562255,16.205270649760596]},"properties":{"Name":"S.E. COMITAN","Fase":"En operacion","Voltaje_KV":115}},
{"type":"Feature","geometry":{"type":"Point","coordinates":[-92.91099350773271,16.997090676042852]},"properties":{"Name":"S.E. BOCHIL","Fase":"En operacion","Voltaje_KV":115}},
{"type":"Feature","geometry":{"type":"Point","coordinates":[-92.60059783612975,16.737641851869483]},"properties":{"Name":"S.E. SAN CRISTOBAL ORIENTE","Fase":"En operacion","Voltaje_KV":115}},
{"type":"Feature","geometry":{"type":"Point","coordinates":[-93.72820604112124,16.0528837855128]},"properties":{"Name":"S.E. TONALA","Fase":"En operacion","Voltaje_KV":115}},
{"type":"Feature","geometry":{"type":"Point","coordinates":[-93.82734204810674,16.428656522622916]},"properties":{"Name":"S.E. LIBERACION MEXICANA","Fase":"En operacion","Voltaje_KV":115}},
{"type":"Feature","geometry":{"type":"Point","coordinates":[-93.32881235139521,16.32370905503925]},"properties":{"Name":"S.E. LAS GARZA","Fase":"En operacion","Voltaje_KV":115}},
{"type":"Feature","geometry":{"type":"Point","coordinates":[-92.82756192707954,16.073826237521327]},"properties":{"Name":"S.E. INDEPENDENCIA","Fase":"En operacion","Voltaje_KV":115}},
{"type":"Feature","geometry":{"type":"Point","coordinates":[-92.68049110361194,15.344245099817853]},"properties":{"Name":"ACACOYAGUA","Fase":"En operacion","Voltaje_KV":115}},
{"type":"Feature","geometry":{"type":"Point","coordinates":[-92.23688973257705,15.369405092607202]},"properties":{"Name":"S.E. MOTOZINTLOA","Fase":"En operacion","Voltaje_KV":115}},
{"type":"Feature","geometry":{"type":"Point","coordinates":[-92.25858777472894,14.922766079563102]},"properties":{"Name":"S.E. TAPACHULA I","Fase":"En operacion","Voltaje_KV":115}},
{"type":"Feature","geometry":{"type":"Point","coordinates":[-92.21876314212143,14.899512998338732]},"properties":{"Name":"S.E. TAPACHULA ORIENTE","Fase":"En operacion","Voltaje_KV":115}},
{"type":"Feature","geometry":{"type":"Point","coordinates":[-92.45208983251783,15.146886225958715]},"properties":{"Name":"S.E. HUIXTLA","Fase":"En operacion","Voltaje_KV":115}},
{"type":"Feature","geometry":{"type":"Point","coordinates":[-93.10724694838981,16.94112272931616]},"properties":{"Name":"SE. JUY JUY","Fase":"En operacion","Voltaje_KV":115}},
{"type":"Feature","geometry":{"type":"Point","coordinates":[-91.87028211938323,17.76022206520118]},"properties":{"Name":"S.E. ZAPATA II","Fase":"En operacion","Voltaje_KV":115}},
{"type":"Feature","geometry":{"type":"Point","coordinates":[-91.73481622156626,17.93783019273999]},"properties":{"Name":"SE. SANTA LUCIA","Fase":"En operacion","Voltaje_KV":230}},
{"type":"Feature","geometry":{"type":"Point","coordinates":[-92.96428726686939,18.010944790078693]},"properties":{"Name":"S.E. SALOYA","Fase":"En operacion","Voltaje_KV":115}},
{"type":"Feature","geometry":{"type":"Point","coordinates":[-93.31071984420895,18.11803836032203]},"properties":{"Name":"S.E. TULIPAN","Fase":"En operacion","Voltaje_KV":115}},